Name,Latitude,Longitude,Free Bikes,Empty Slots,Total Bikes
Chester Ave & 12 Ave,40.644367,-73.984276,19,2,21
W 56 St & 8 Ave,40.765959181657976,-73.98313522338867,0,45,45
S Portland Ave & Hanson Pl,40.68539567,-73.97431458,6,18,24
E 78 St & 2 Ave,40.7727966,-73.95577801,5,16,21
87 St & Roosevelt Ave,40.74825,-73.87936,1,22,23
E 157 St & River Ave,40.825737,-73.927311,11,0,11
E 17 St & Broadway,40.737006,-73.990134,48,24,72
Central Ave & Flushing Ave,40.702831,-73.9333,16,4,20
E 149 St & Eagle Ave,40.814046,-73.91186,5,14,19
E 165 St & Jerome Ave,40.83263,-73.925101,10,6,16
72 St & 31 Ave,40.7584,-73.89531,9,10,19
Irwin Ave & W 232 St,40.88227,-73.90809,11,8,19
Nassau Ave & Russell St,40.72557,-73.94434,22,29,51
1 St & 6 Ave,40.672784,-73.979826,8,25,33
Bulova Ave & Brooklyn Queens Expressway W,40.762507,-73.902534,7,10,17
45 St & 4 Ave,40.649145,-74.009486,18,0,18
Watts St & Greenwich St,40.72405549,-74.00965965,8,25,33
Broadway & E 14 St,40.73454567,-73.99074142,8,100,108
Harrison Pl & Porter Ave,40.70686,-73.92851,18,1,19
W 87 St & West End Ave,40.789622,-73.97757,0,37,37
3 Ave & E 109 St,40.79338,-73.94329,23,0,23
Myrtle Ave & St Edwards St,40.69327018,-73.97703874,39,11,50
E 9 St & Ave C,40.72521311,-73.97768752,21,23,44
Marcy Ave & Gates Ave,40.686679,-73.947417,6,15,21
Beverley Rd & Flatbush Ave,40.64499,-73.95818,25,4,29
Bergen St & Vanderbilt Ave,40.6794388,-73.9680438,19,2,21
E 149 St & Park Ave,40.818154,-73.925294,17,2,19
Sheridan Ave & E 168 St,40.835334,-73.9154,3,14,17
Dyckman St & Henshaw St,40.867357,-73.92936,6,10,16
Hudson St & Reade St,40.71625008,-74.0091059,18,35,53
E 106 St & 1 Ave,40.7892529,-73.93956237,16,10,26
E 1 St & Bowery,40.72486122254819,-73.99213135242462,15,21,36
DeKalb Ave & Franklin Ave,40.69064807082943,-73.95746178925037,10,8,18
Melrose Ave & E 150 St,40.816827,-73.917338,4,18,22
Botanical Sq & Webster Ave,40.86814,-73.88145,23,4,27
E 23 St & 1 Ave,40.736502,-73.97809472,8,18,26
Buchanan Pl & Grand Ave,40.85834,-73.90626,5,12,17
Flatbush Ave & Ocean Ave,40.663657,-73.963014,19,10,29
Halsey St & Evergreen Ave,40.68858,-73.91227,6,14,20
Southern Blvd & E 174 St,40.836733,-73.887931,6,15,21
Park Pl & Church St,40.71334184275907,-74.00935515761375,16,36,52
Kent Ave & N 7 St,40.72036775298455,-73.96165072917938,42,11,53
E 188 St & Creston Ave,40.861669,-73.898589,5,25,30
63 St & 59 Dr,40.71832,-73.90128,17,0,17
Decatur Ave & E 197 St,40.86557,-73.88807,17,0,17
E 94 St & Madison Ave,40.785851052913884,-73.95482444378061,29,9,38
55 Ave & 90 St,40.73676,-73.87318,17,3,20
Vernon Blvd & 41 Rd,40.7552433,-73.9485678,18,8,26
South St & Whitehall St,40.70122128,-74.01234218,47,0,47
21 St & Queens Plaza North,40.75325964,-73.94335788,6,29,35
Bronx Park S & Bryant Ave,40.84437,-73.87796,13,3,16
E 34 St & Linden Blvd,40.65302,-73.94599,7,15,22
Liberty St & Broadway,40.70905623,-74.01043382,60,0,60
Frost St & Debevoise Ave,40.71882,-73.93948,7,15,22
3 Ave & Schermerhorn St,40.68683208,-73.9796772,20,4,24
Franklin Ave & St Marks Ave,40.6758324,-73.9561677,1,21,22
W 170 St & University Ave,40.84207,-73.926075,5,15,20
Menahan St & Wyckoff Ave,40.70113,-73.91422,2,16,18
E 114 St & 1 Ave,40.7945663,-73.9362541,16,6,22
Ave D & E 3 St,40.72082834,-73.97793172,28,24,52
Edgecombe Ave & W 167 St,40.838191,-73.936085,5,12,17
W 100 St & Broadway,40.7973721,-73.97041192,2,26,28
Caton Ave & E 10 St,40.648481,-73.97058,24,3,27
Morningside Ave & W 123 St,40.81,-73.9551508,27,1,28
Gerard Ave & E 164 St,40.830262,-73.923391,3,13,16
Eastern Pkwy & Brooklyn Ave,40.66939,-73.94514,8,5,13
Riverview Park,40.7443187,-74.0439909,9,8,17
W 42 St & 6 Ave,40.75492,-73.98455,47,0,47
Riverside Dr & W 138 St,40.823168,-73.955857,5,18,23
39 St & Queens Blvd,40.74431,-73.92601,4,15,19
95 St & 35 Ave,40.75301,-73.87266,5,17,22
W 78 St & Broadway,40.78339981,-73.98093133,1,33,34
Coffey St & Conover St,40.677236,-74.015665,9,18,27
Warren St & Smith St,40.685424009970184,-73.99127773940563,25,4,29
E 91 St & Park Ave,40.7835016,-73.955327,21,10,31
59 St & 4 Ave,40.641269,-74.017651,20,9,29
5 Ave & W 126 St,40.80722,-73.9418,18,8,26
W 15 St & 6 Ave,40.738046142482766,-73.99642959237099,1,62,63
Crotona Pkwy & Elsmere Pl,40.84188,-73.8855,16,6,22
Powers St & Olive St,40.71323,-73.93894,3,14,17
E 55 St & 2 Ave,40.75797322,-73.96603308,1,17,18
Morris Ave & E 142 St,40.814469,-73.924963,14,4,18
Case St & 94 St,40.74619,-73.87193,6,15,21
E 2 St & Ave B,40.72217444,-73.98368779,20,55,75
Fulton Ave & E 168 St,40.830471,-73.904556,4,15,19
W 92 St & Broadway,40.7921,-73.9739,0,14,14
36 St & 4 Ave,40.654144,-74.00422,30,0,30
Bloomfield St & 15 St,40.75453,-74.02658,5,8,13
Broadway & W 153 St,40.831327,-73.946665,4,11,15
E 17 St & 2 Ave,40.73431166276575,-73.98372530937195,20,23,43
Forley St & Lamont Ave,40.74463,-73.87386,8,13,21
Market St & Henry St,40.71310702305908,-73.99446353316307,16,26,42
Pacific St & Smith St,40.687880939612775,-73.98939281702042,40,1,41
Pacific St & Classon Ave,40.6791944,-73.9587903,3,12,15
Montague St & Hicks St,40.69522407512035,-73.99598850939152,5,21,26
W 56 St & 10 Ave,40.768254,-73.988639,10,19,29
Grand Concourse & E 199 St,40.87142,-73.88839,4,17,21
Knickerbocker Ave & Halsey St,40.693,-73.90824,2,14,16
Seneca Ave & Irvine St,40.81885,-73.88821,10,7,17
New York Ave & Snyder Ave,40.64868,-73.94635,11,9,20
111 St & 49 Ave,40.74612,-73.85272,20,10,30
Home St & Westchester Ave,40.827629,-73.886659,17,1,18
Andrews Ave S & W 179 St,40.855156,-73.91278,0,17,17
Lott St & Erasmus St,40.64949,-73.95408,14,1,15
Putnam Ave & Throop Ave,40.6851532,-73.94111,3,7,10
21 St & Hoyt Ave S,40.774645,-73.923706,8,24,32
E 176 St & Clinton Ave,40.84311,-73.89149,9,9,18
39 Dr & 52 St,40.74732,-73.91197,1,15,16
Jay St & York St,40.701403172577244,-73.98672670125961,16,17,33
Greenpoint Ave & 47 St,40.7424,-73.91808,8,15,23
Clinton St & Centre St,40.67434,-74.00194698,11,8,19
Bedford Ave & Fenimore St,40.65815,-73.95674,4,11,15
E 179 St & Southern Blvd,40.84467,-73.88507,1,21,22
E 134 St & Walnut Ave,40.800425,-73.911034,12,2,14
Freeman St & Reverend James A Polite Ave,40.830529,-73.894717,12,7,19
Carroll St & Washington Ave,40.6686744,-73.9618148,3,19,22
W 45 St & 8 Ave,40.75929124,-73.98859651,15,42,57
Bergen St & Saratoga Ave,40.67423,-73.91656,11,6,17
Cleveland Pl & Spring St,40.722103786686034,-73.99724900722504,15,4,19
E 180 St & Monterey Ave,40.85025,-73.89301,11,10,21
Sumpter St & Fulton St,40.67923,-73.92588,8,9,17
79 St & Woodside Ave,40.74364,-73.88622,7,10,17
E 15 St & 3 Ave,40.734232,-73.986923,17,58,75
Woodside Ave & 55 St,40.74679,-73.90893,7,12,19
Nostrand Ave & Flushing Ave,40.69928,-73.953259,18,6,24
20 Ave & 31 St,40.78001336610564,-73.90667617321014,5,15,20
Franklin St & Dupont St,40.73564,-73.95866,2,24,26
Myrtle Ave & Lewis Ave,40.69681963,-73.93756926,13,1,14
1 Ave & E 94 St,40.7817212,-73.94594,24,15,39
E 135 St & St Ann's Ave,40.805089,-73.918889,19,1,20
E 35 St & Madison Ave,40.74848023448579,-73.98255586624146,6,41,47
49 St & 25 Ave,40.764496,-73.904632,19,5,24
Strong St & University Ave,40.87119,-73.89918,3,14,17
Carlton Ave & Park Ave,40.69580705,-73.97355569,9,13,22
Clinton St & Tillary St,40.696232971293156,-73.99142056703568,2,18,20
Sheridan Ave & E 172 St,40.840494,-73.911479,7,13,20
19 St & 24 Ave,40.7774552,-73.9225403,3,19,22
Winthrop St & Schenectady Ave,40.6582,-73.9338,14,5,19
Forsyth St & Canal St,40.7158155,-73.99422366,7,7,14
6 Ave & 21 St,40.66016,-73.990974,7,9,16
100 St & 37 Ave,40.75243,-73.86717,0,18,18
Beaver St & Fayette St,40.70099,-73.93921,28,0,28
Malcolm X Blvd & DeKalb Ave,40.6938,-73.93114,6,9,15
Walton Ave & E 183 St,40.858472,-73.90266,5,22,27
Somers St & Rockaway Ave,40.67872,-73.91105,1,18,19
Carroll St & 5 Ave,40.6751622,-73.9814832,15,5,20
Astor Place,40.71928220070702,-74.07126188278198,6,6,12
12 St & Sinatra Dr N,40.750604142368964,-74.02402013540268,9,18,27
Cedar St & Myrtle Ave,40.697842,-73.926241,6,14,20
E 45 St & 3 Ave,40.75255434,-73.97282625,30,3,33
Morris Ave & McClellan St,40.831584,-73.9149,17,3,20
E 161 St & River Ave,40.827883,-73.927111,25,6,31
Park Ave & Marcy Ave,40.697576,-73.948881,6,16,22
81 St & 35 Ave,40.75179,-73.88568,5,16,21
3 Ave & E 189 St,40.85985,-73.89135,26,3,29
27 Ave & 3 St,40.77485,-73.9342,11,6,17
Decatur Ave & Bedford Park Blvd,40.86813,-73.88412,16,1,17
Riverside Dr & W 82 St,40.78720869,-73.98128127,3,60,63
Fulton St & Adams St,40.692418292578466,-73.98949474096298,37,7,44
32 Ave & 81 St,40.75763,-73.88682,3,15,18
Driggs Ave & S 2 St,40.712628,-73.960575,17,12,29
Jerome Ave & W 193 St,40.86659,-73.89794,11,7,18
W 74 St & Columbus Ave,40.7785669,-73.97754961,0,12,12
Central Ave & Himrod St,40.69676,-73.92302,4,16,20
W 17 St & 8 Ave,40.74177603,-74.00149746,28,43,71
Paul Ave & W 205 St,40.87704,-73.88943,12,3,15
Ditmars Blvd & 79 St,40.768728,-73.890745,13,11,24
3 Ave & E 174 St,40.84224,-73.8985,27,5,32
Broadway & 49 St,40.755389,-73.911517,9,14,23
Calyer St & Jewel St,40.72984,-73.94839,24,11,35
Cypress Hills St & Otto Rd,40.70204,-73.89288,11,6,17
61 St & 39 Ave,40.7471,-73.9028,21,7,28
E 179 St & Daly Ave,40.84335,-73.88247,2,14,16
Concourse Village West & E 156 St,40.823162,-73.923267,4,10,14
Grand St,40.71517767732029,-74.03768330812454,13,5,18
Perry St & Bleecker St,40.73535398,-74.00483091,23,48,71
Broadway & Battery Pl,40.70463334,-74.01361706,35,10,45
Waldron St & 108 St,40.73916,-73.8526,15,2,17
Prospect Pl & Underhill Ave,40.6769694,-73.96579,0,18,18
Broadway & Moylan Pl,40.8143256,-73.9590255,21,10,31
Queens Blvd & 56 St,40.74193,-73.90913,3,16,19
1 Ave & E 42 St,40.7487575,-73.970127,38,20,58
Amsterdam Ave & W 189 St,40.85318758861975,-73.92715752124786,4,14,18
Buffalo Ave & E New York Ave,40.66591,-73.92602,19,4,23
E 182 St & Grand Concourse,40.85591,-73.90051,5,20,25
Prospect Ave & E 151 St,40.814232,-73.903927,16,0,16
5 Ave & 67 St,40.635679,-74.020005,11,4,15
34 Ave & 74 St,40.75297,-73.89236,13,10,23
E 2 St & Ave C,40.7208736,-73.98085795,22,56,78
Sands St & Jay St,40.700119,-73.9862,31,15,46
Fulton Ave & E 172 St,40.839229,-73.899047,11,3,14
Christ Hospital,40.734785818,-74.050443636,4,17,21
112 St & Northern Blvd,40.75788,-73.85763,9,8,17
59 St & 5 Ave,40.640125,-74.015726,9,15,24
Irving Ave & Palmetto St,40.698,-73.9127,12,4,16
University Ave & Macombs Rd,40.8496401,-73.9161206,1,18,19
W 76 St & Columbus Ave,40.7801839724239,-73.97728532552719,1,47,48
Devoe St & Lorimer St,40.71335226222875,-73.9491033554077,10,4,14
Lewis Ave & Fulton St,40.67972,-73.93467,8,11,19
E 43 St & 2 Ave,40.75022392,-73.97121414,5,46,51
Cortelyou Rd & E 34 St,40.64454,-73.94486,15,3,18
46 St & Queens Blvd,40.74349759836971,-73.91860529780388,9,20,29
Picnic Point,40.68512559515415,-74.02535319328308,30,15,45
26 Ave & 2 St,40.77684387,-73.93463418,20,2,22
Goulden Ave & W 205 St,40.87812,-73.89192,13,0,13
53 Ave & 94 St,40.73921,-73.86887,15,5,20
Tilden Ave & Nostrand Ave,40.64683,-73.94933,18,1,19
62 St & 43 Ave,40.74261,-73.903,5,14,19
E 7 St & Ave B,40.7251285241158,-73.98131668567657,18,48,66
99 St & 35 Ave,40.75404,-73.86887,1,19,20
2 Ave & E 29 St,40.741723510974715,-73.97809267044067,12,40,52
E 6 St & 2 Ave,40.727378693232225,-73.98840844631195,40,24,64
21 St & 21 Ave,40.782465,-73.914527,2,13,15
Soissons Landing,40.69231660719192,-74.01486575603485,21,8,29
Schermerhorn St & Court St,40.6910363748993,-73.99201065301895,13,36,49
W 89 St & Columbus Ave,40.7882213,-73.97041561,15,28,43
44 Dr & 21 St,40.748036,-73.946705,12,25,37
Little West St & 1 Pl,40.70569254,-74.01677685,3,25,28
E 66 St & Madison Ave,40.76800889305947,-73.96845281124115,9,25,34
108 St & 39 Ave,40.75165,-73.85915,10,11,21
35 St & Broadway,40.760339,-73.9222427,4,13,17
44 Dr & Jackson Ave,40.74718234,-73.9432635,11,21,32
2 Ave & 37 St,40.65624,-74.00933,44,0,44
Front St & Jay St,40.702461,-73.986842,20,3,23
E 10 St & 5 Ave,40.73331967,-73.99510132,19,30,49
51 Ave & Junction Blvd,40.74087,-73.86772,17,2,19
Halsey St & Broadway,40.68565,-73.91564,12,6,18
Southern Blvd & E 175 St,40.839335,-73.886445,8,6,14
Berkeley Pl & 6 Ave,40.6765304,-73.97846879,25,8,33
Linden Blvd & Nostrand Ave,40.65272,-73.94994,22,1,23
Broadway & Roebling St,40.70924826276157,-73.96063148975372,13,10,23
92 St & Astoria Blvd,40.76313,-73.8772,15,2,17
Charlotte St & Boston Rd,40.8358771,-73.8931428,1,13,14
W 18 St & 9 Ave,40.7435337324616,-74.00367558002472,38,0,38
Brook Ave & E 138 St,40.807408,-73.91924,11,3,14
Grand Concourse & E 171 St,40.839549,-73.913004,0,22,22
Ralph Ave & Fulton St,40.67922,-73.92192,9,15,24
Broadway & W 157 St,40.83402740143528,-73.94510813442648,18,11,29
Leonard St & Church St,40.717571,-74.005549,6,46,52
56 St & 2 Ave,40.645705,-74.020292,34,0,34
Bedford Ave & Bergen St,40.676368,-73.952918,5,12,17
Bus Slip & State St,40.701907,-74.013942,30,36,66
Greene Ave & Grandview Ave,40.709697,-73.907856,3,8,11
JC Medical Center,40.71539114317,-74.04969155788422,10,10,20
Church Ave & E 45 St,40.65159,-73.93535,14,9,23
Fulton St & William St,40.70960089363537,-74.00655090808868,22,16,38
Hoboken Terminal - River St & Hudson Pl,40.7360676564825,-74.02912706136703,26,0,26
E 81 St & York Ave,40.7728384,-73.94989233,13,33,46
69 St & 43 Ave,40.74179,-73.89564,3,15,18
W 25 St & 8 Ave,40.74649996333341,-73.99732626293645,2,62,64
Park Circle & East Dr,40.651566,-73.972212,21,3,24
50 St & 7 Ave,40.642501,-74.006055,4,17,21
Degraw St & Hoyt St,40.681990442707026,-73.99079024791718,11,8,19
E Fordham Rd & Webster Ave,40.861748,-73.89105,27,5,32
Ave D & E 10 St,40.72506551015475,-73.97515833377838,12,11,23
36 St & Queens Blvd,40.74408,-73.92901,10,11,21
Flatbush Ave & Lincoln Rd,40.66131,-73.96091,19,0,19
E 174 St & Longfellow Ave,40.836274,-73.884308,11,8,19
Wilson Ave & Moffat St,40.68906,-73.90506,19,10,29
E 156 St & Brook Ave,40.819823,-73.912411,9,1,10
8 Ave & W 33 St,40.751551,-73.993934,2,88,90
Pleasant Ave & E 120 St,40.7974772,-73.9311847,12,6,18
Onderdonk Ave & Gates Ave,40.70413,-73.90737,4,14,18
Prospect Pl & 6 Ave,40.6793307,-73.97519523,13,7,20
University Ave & Brandt Pl,40.848354,-73.918389,1,20,21
Lincoln Ave & E 138 St,40.810893,-73.927311,22,2,24
Edgecombe Ave & W 141 St,40.820681,-73.945144,7,11,18
8 Ave & W 27 St,40.747968,-73.996637,3,29,32
W 20 St & 5 Ave,40.73972989238724,-73.99103969335556,15,34,49
Lenox Ave & W 146 St,40.821111,-73.935971,11,11,22
Prospect Park SW & 10 Ave,40.659945,-73.977504,0,24,24
Boone Ave & E 172 St,40.832649,-73.885272,8,6,14
Ave D & E 12 St,40.72580614,-73.97422494,5,35,40
81 St & 34 Ave,40.75374,-73.88604,6,16,22
Marshall St & 2 St,40.740802,-74.042521,11,6,17
West End Ave & W 60 St,40.77237,-73.99005,22,14,36
46 St & 30 Rd,40.76072,-73.910989,2,18,20
Bayard St & Leonard St,40.71915571696044,-73.94885390996933,18,24,42
31 Ave & 30 St,40.7647,-73.9240312,8,12,20
49 Ave & 27 St,40.74113,-73.942518,8,17,25
14 St Ferry - 14 St & Shipyard Ln,40.752960630464955,-74.02435272932053,12,17,29
43 St & 35 Ave,40.754139,-73.919543,6,19,25
Richards St & Delavan St,40.6794327,-74.00785041,15,1,16
Park Pl & Buffalo Ave,40.67202,-73.92539,1,18,19
E 61 St & Madison Ave,40.764752828526326,-73.97037800510203,23,13,36
E 89 St & 3 Ave,40.7806284,-73.9521667,10,18,28
Grand Concourse & E 181 St,40.85466,-73.9015,3,17,20
56 Dr & 61 St,40.72368,-73.90458,7,11,18
Lexington Ave & E 29 St,40.74311555376486,-73.98215353488922,1,50,51
Ogden Ave & W 165 St,40.834457,-73.928381,0,12,12
Willoughby Ave & Hall St,40.69196035,-73.96536851,13,29,42
Yankee Ferry Terminal,40.68706579875912,-74.01675585121666,7,35,42
Sedgwick Ave & W Burnside Ave,40.854947,-73.916661,2,14,16
Maple St & Flatbush Ave,40.66026,-73.96045,10,14,24
5 St & Market St,40.699997484388504,-73.97440128028393,33,0,33
Southern Blvd & E 180 St,40.84605,-73.88426,5,11,16
65 Ln & Metropolitan Ave,40.7123,-73.89397,14,5,19
Van Sinderen Ave & Atlantic Ave,40.67621,-73.90351,4,17,21
Broadway & W 160 St,40.835775,-73.9434,4,15,19
W 55 St & 6 Ave,40.763189,-73.978434,36,38,74
Popham Ave & W 174 St,40.847746,-73.922079,4,13,17
Church Ave & Nostrand Ave,40.65074,-73.94986,24,3,27
Broadway & W 61 St,40.77003010255044,-73.9819684624672,4,46,50
Henry St & Atlantic Ave,40.69089272,-73.99612349,10,7,17
38 St & Northern Blvd,40.752372,-73.925384,8,14,22
21 St & 31 Dr,40.7659,-73.930819,1,17,18
Washington St,40.7242941,-74.0354826,7,9,16
57 St & 1 Ave,40.646377,-74.023087,24,2,26
Amsterdam Ave & W 136 St,40.819746,-73.951819,6,11,17
Columbia St & Kane St,40.68763155,-74.0016256,16,3,19
Clay Ave & E 173 St,40.843264,-73.904867,2,16,18
Scholes St & Manhattan Ave,40.70870368,-73.9448625,24,11,35
Alexander Ave & E 134 St,40.807466,-73.927107,8,4,12
E 58 St & 1 Ave (NE Corner),40.75892386377695,-73.96226227283478,4,22,26
55 Dr & Maurice Ave,40.7261,-73.90917,8,9,17
Rogers Ave & Snyder Ave,40.64871,-73.95218,19,0,19
6 Ave & Walker St,40.7197920901383,-74.0052238852195,18,10,28
Bushwick Ave & Stagg St,40.709897,-73.94008,7,9,16
Longwood Ave & Southern Blvd,40.816343,-73.896447,19,0,19
Brunswick & 6th,40.72601172964625,-74.05038893222809,1,13,14
E 138 St & Cypress Ave,40.805559,-73.914718,7,12,19
36 St & Hunters Point Ave,40.73781699881193,-73.93024072051048,8,11,19
E 142 St & 3 Ave,40.812735,-73.923697,11,5,16
E 20 St & 2 Ave,40.73587678,-73.98205027,24,53,77
Grand St & Samuel Dickstein Plaza,40.715118719964956,-73.98417055606842,9,60,69
43 Ave & 40 St,40.74562,-73.92402,0,18,18
1 Ave & E 18 St,40.733812191966315,-73.98054420948029,7,36,43
Smith St & 9 St,40.6746957,-73.99785768,8,6,14
Frederick Douglass Blvd & W 117 St,40.805159,-73.954692,14,19,33
18 St & 27 Ave,40.772768286288304,-73.92743647098541,8,12,20
Amsterdam Ave & W 183 St,40.84925,-73.93022,4,16,20
St Marks Ave & Ralph Ave,40.67372,-73.92199,7,9,16
St Nicholas Ave & W 155 St,40.830663,-73.941323,3,18,21
97 St & 23 Ave,40.7683,-73.87331,17,1,18
St Mary's St & Jackson Ave,40.808891,-73.91081,7,9,16
Wards Meadow Comfort Station,40.78294,-73.93077,1,7,8
Eastern Pkwy & St Marks Ave,40.67319,-73.91083,7,14,21
Amsterdam Ave & W 180 St,40.847396,-73.931205,10,11,21
Old Fulton St,40.70277159,-73.99383605,17,10,27
111 St & 37 Ave,40.75397,-73.85748,17,5,22
Flushing Ave & Woodward Ave,40.71246,-73.91873,19,2,21
E 56 St & 3 Ave,40.75934501,-73.96759673,37,39,76
Broadway & W 56 St,40.7652654,-73.98192338,19,85,104
Central Ave & Starr St,40.700003,-73.92834,10,13,23
Columbus Park - Clinton St & 9 St,40.74816121065146,-74.0324530005455,12,13,25
24 Ave & 87 St,40.7654,-73.88256,10,9,19
Seneca Ave & Decatur St,40.69723,-73.89811,13,6,19
Eastern Pkwy & Washington Ave,40.6716493,-73.9631145,4,20,24
Pulaski St & Throop Ave,40.693115,-73.943149,0,16,16
McGuinness Blvd & Eagle St,40.73555,-73.95284,15,23,38
Walton Ave & E 176 St,40.84833,-73.90971,12,7,19
Walton Ave & E 153 St,40.822351,-73.926907,15,0,15
37 Ave & 106 St,40.75397,-73.862,18,1,19
59 St & 59 Rd,40.71790852734058,-73.908454477787,20,1,21
24 Ave & 92 St,40.76589,-73.87789,15,3,18
E 15 St & 5 Ave,40.736592,-73.992949,7,60,67
3 Ave & E 72 St,40.7699426,-73.96060712,0,33,33
E 23 St & FDR Dr,40.736,-73.97605,18,27,45
Melrose St & Broadway,40.697481,-73.935877,9,2,11
Norman St & Wyckoff Ave,40.69517,-73.90311,11,1,12
W 20 St & 11 Ave,40.746745,-74.007756,41,31,72
Schenectady Ave & Prospect Pl,40.67351,-73.93363,2,16,18
Pacific St & Utica Ave,40.6767,-73.93051,6,11,17
7 Ave & 62 St,40.63556,-74.01298,18,5,23
Washington Ave & Park Ave,40.69610226,-73.96751037,45,8,53
Grand Concourse & E 175 St,40.84627592921954,-73.90931278467178,0,19,19
Bailey Ave & W 229 St,40.87449,-73.90467,18,2,20
Dwight St & Van Dyke St,40.67363551341504,-74.01195555925369,17,0,17
University Pl & E 14 St,40.734814,-73.992085,22,36,58
Sherman Ave & E 166 St,40.83130549267296,-73.91744792461395,9,9,18
Park Ave & St Edwards St,40.69608941,-73.97803415,42,4,46
Wakeman Pl & Ridge Blvd,40.639421,-74.026823,16,3,19
St Ann's Ave & Bruckner Blvd,40.803399,-73.919763,14,0,14
Herkimer St & New York Ave,40.67955,-73.94709,12,7,19
46 Ave & Junction Blvd,40.74399,-73.86781,8,8,16
Riverside Blvd & W 67 St,40.777507027547976,-73.98888587951659,27,39,66
Clinton Ave & Flushing Ave,40.69794,-73.96986848,22,0,22
Broadway & W 53 St,40.76344058,-73.98268129,11,71,82
Gleane St & Britton Ave,40.74646,-73.87996,8,12,20
Dock 72 Way & Market St,40.69985,-73.97141,2,0,2
West St & Liberty St,40.711444,-74.014847,34,2,36
E 85 St & York Ave,40.77536905,-73.94803392,5,34,39
38 Ave & 29 St,40.75473,-73.93367,3,14,17
Morris Ave & E 163 St,40.827230499624726,-73.91765579597632,11,1,12
Featherbed Ln & Jerome Ave,40.845505,-73.914311,15,1,16
Howard St & Lafayette St,40.71910537,-73.99973337,18,20,38
Mets Plaza at Citi Field,40.75521,-73.84672,11,23,34
36 St & Ditmars Blvd,40.774306,-73.908335,4,17,21
Jerome Ave & Anderson Ave,40.830179,-73.928747,8,6,14
W 53 St & 10 Ave,40.76669671,-73.99061728,1,23,24
E 182 St & Morris Ave,40.85670801831255,-73.90265285968779,5,14,19
65 Pl & Woodside Ave,40.74334,-73.89903,5,13,18
E 167 St & Bryant Ave,40.826706,-73.888719,11,4,15
Crescent St & 34 Ave,40.76108,-73.930562,9,18,27
E 74 St & 1 Ave,40.7689738,-73.95482273,37,40,77
Centre St & Seneca Ave,40.69969,-73.9022,2,19,21
Somers St & Broadway,40.67945,-73.90474,28,1,29
Central Park W & W 85 St,40.78476,-73.969862,8,29,37
Central Ave & Melrose St,40.70112,-73.93039,11,6,17
E 77 St & 3 Ave,40.77314236,-73.95856158,2,43,45
Stuyvesant Ave & Gates Ave,40.68834,-73.93306,7,15,22
Steinway St & 28 Ave,40.7656251,-73.9136695,0,23,23
South St & Gouverneur Ln,40.70355377,-74.00670227,11,31,42
Rogers Ave & Sterling St,40.6630619,-73.9538746,5,5,10
E 118 St & Madison Ave,40.8014866,-73.9442507,9,18,27
E 88 St & Park Ave,40.781410700190015,-73.95595908164978,4,25,29
Eagle St & Manhattan Ave,40.735217,-73.954926,9,24,33
E 38 St & Church Ave,40.65106,-73.94193,10,11,21
31 Ave & 84 St,40.75947,-73.88431,16,2,18
Pinehurst Ave & W 187 St,40.855331,-73.937878,0,14,14
King St & Varick St,40.72789701409023,-74.00536268949507,19,16,35
W 13 St & 7 Ave,40.73781509,-73.99994661,4,43,47
Bergen St & Kingston Ave,40.6756,-73.9415,7,12,19
Gillmore St & 27 Ave,40.76399,-73.8669,16,0,16
40 Ave & Crescent St,40.753599202005596,-73.93795609474182,12,9,21
Wilson Ave & Troutman St,40.70166,-73.92754,7,16,23
Wyckoff Ave & Jefferson St,40.707165,-73.923711,11,12,23
8 Ave & W 52 St,40.76370739,-73.9851615,0,28,28
W 18 St & 6 Ave,40.73971301,-73.99456405,66,1,67
35 St & 34 Ave,40.7580583,-73.9242751,4,21,25
Rivington St & Chrystie St,40.72110063,-73.9919254,61,2,63
50 Ave & 65 St,40.73707,-73.90077,12,6,18
E 40 St & Park Ave,40.750756,-73.978326,66,54,120
Grand Ave & W Fordham Rd,40.86288,-73.90316,0,18,18
Broadway & Ellwood St,40.862058,-73.929719,12,5,17
Clifton Pl & Bedford Ave,40.688655,-73.955156,11,5,16
64 St & 3 Ave,40.639978,-74.02324,16,18,34
Adam Clayton Powell Blvd & W 115 St,40.802535,-73.9532423,8,9,17
Hoe Ave & Jennings St,40.832171,-73.889686,5,13,18
61 St & 60 Ln,40.70055,-73.8943,4,14,18
Clinton St & Grand St,40.71559509,-73.9870295,14,44,58
Brooklyn Ave & Beverley Rd,40.64575,-73.94331,5,12,17
4 Ave & Shore Road Dr,40.637033,-74.022141,15,4,19
Forest Ave & Summerfield St,40.69922,-73.89795,3,18,21
Windsor Pl & Howard Pl,40.659490558938955,-73.98013919591904,4,15,19
92 St & 37 Ave,40.75085,-73.87509,2,15,17
Jackson Ave & 46 Rd,40.74524768,-73.94733276,11,15,26
Hancock St & Malcolm X Blvd,40.68487,-73.9293,7,5,12
York St & Marin Blvd,40.716615000830494,-74.0424120426178,14,3,17
Marcy Ave & Lynch St,40.702753,-73.953168,18,4,22
Margaret Corbin Plz & Ft Washington Ave,40.859166,-73.933872,0,21,21
City Hall,40.7177325,-74.043845,3,19,22
Hart St & Wyckoff Ave,40.704876,-73.919911,12,4,16
Franklin Ave & Quincy St,40.68636,-73.95678,2,19,21
Wales Ave & E 147 St,40.811314,-73.907729,9,7,16
Lefferts Pl & Franklin Ave,40.680342423,-73.9557689392,6,10,16
Southern Blvd & E 172 St,40.834124,-73.88955,4,12,16
Kingston Ave & E New York Ave,40.66219,-73.94293,17,3,20
E 24 St & Park Ave S,40.74096374,-73.98602213,43,34,77
Gold St & Frankfort St,40.71069995,-74.00354147,30,9,39
Orchard St & Grand St,40.717318403855785,-73.99067759513855,18,17,35
Butler St & Court St,40.6849894,-73.99440329,25,3,28
Newtown Ave & 23 St,40.7713615,-73.9246145,8,16,24
Park Ave & Marcus Garvey Blvd,40.698617,-73.941342,15,3,18
23 Ave & 83 St,40.76646,-73.88674,16,1,17
W 22 St & 10 Ave,40.74691959,-74.00451887,17,54,71
E 184 St & 3 Ave,40.85472,-73.89022,12,3,15
Warren St & W Broadway,40.71473993,-74.00910627,45,13,58
Central Park W & W 72 St,40.77579376683666,-73.9762057363987,6,41,47
Grand Concourse & E 203 St,40.87382,-73.88661,2,21,23
49 St & 31 Ave,40.758057,-73.909831,4,15,19
N 9 St & Wythe Ave,40.72054,-73.959,35,11,46
Church St & Worth St,40.71688538495366,-74.00650128722191,35,8,43
Columbus Ave & W 95 St,40.7919557,-73.968087,1,26,27
Lexington Ave & Stuyvesant Ave,40.68973,-73.93353,2,15,17
E 16 St & 5 Ave,40.73726186,-73.99238967,17,47,64
Baldwin at Montgomery,40.7236589,-74.0641943,5,9,14
35 Ave & 37 St,40.7557327,-73.9236611,20,10,30
E 20 St & FDR Dr,40.733208626522426,-73.9756813647,19,44,63
Loring Pl North & W 183 St,40.8604244,-73.9093359997,0,17,17
8 Ave & W 38 St,40.75461,-73.99177,17,40,57
Dawson St & Intervale Ave,40.819999,-73.897263,13,0,13
Harborside,40.7192517,-74.034234,10,17,27
Ave C & E 16 St,40.72984830346529,-73.97455215454102,15,26,41
Thomas S. Boyland St & Marion St,40.6814658848122,-73.91415685415268,6,12,18
10 St & 5 Ave,40.6686273,-73.98700053,11,12,23
Kent St & McGuinness Blvd,40.73124,-73.95161,14,6,20
St Johns Pl & Howard Ave,40.66992,-73.92002,9,11,20
Mount Eden Pkwy & Eastburn Ave,40.842675,-73.908544,15,4,19
31 Ave & Crescent St,40.7658346,-73.9265474,3,12,15
W 20 St & 10 Ave,40.745686,-74.005141,21,25,46
E 11 St & 3 Ave,40.73127,-73.98849,4,69,73
Ave D & E 8 St,40.72368361,-73.97574813,6,24,30
Frederick Douglass Blvd & W 129 St,40.8125511,-73.9492286,13,10,23
Brooklyn Ave & Lefferts Ave,40.662564,-73.945565,17,2,19
Clarkson Ave & Nostrand Ave,40.6555,-73.94975,18,6,24
Academy St & Nagle Ave,40.862562,-73.922661,12,3,15
Henry St & Degraw St,40.6847514,-73.99917254,4,18,22
Schenectady Ave & Cortelyou Rd,40.64535,-73.93268,14,1,15
6 Ave & W 45 St,40.756951,-73.982631,63,0,63
20 Ave & 38 St,40.777112,-73.902382,17,11,28
W 204 St & Vermilyea Ave,40.866141,-73.922648,11,7,18
Marcy Ave & Rutledge St,40.703681,-73.95427,5,14,19
Stratford Rd & Beverley Rd,40.64378,-73.96867,15,1,16
Broadway & Kosciuszko St,40.69329,-73.92852,7,21,28
W 34 St & 11 Ave,40.75594159,-74.0021163,49,17,66
51 Ave & Alstyne Ave,40.74311,-73.85715,18,1,19
57 St & Grand Ave,40.71921,-73.9124,2,16,18
Grand Concourse & E 167 St,40.834263,-73.917641,2,27,29
E 16 St & Irving Pl,40.735367055605394,-73.98797392845154,42,34,76
Marcy Ave & Hart St,40.693022,-73.94868,8,4,12
McKibbin St & Manhattan Ave,40.70510918,-73.94407279,6,17,23
George St & Wilson Ave,40.702997,-73.92997,17,2,19
W 107 St & Columbus Ave,40.7997568,-73.9621128676,2,6,8
W 52 St & 5 Ave,40.75992262,-73.97648516,57,0,57
Madison Ave & E 82 St,40.7781314,-73.96069399,9,23,32
W 230 St & Marble Hill Ave,40.87807,-73.90796,20,2,22
Peck Slip & South St,40.7075188830923,-74.00108054280281,35,3,38
Pier 61 at Chelsea Piers,40.746872,-74.00821,16,1,17
River Ave & McClellan St,40.83406,-73.92243,15,2,17
William St & Pine St,40.70717936,-74.00887308,9,47,56
3 Ave & Wakeman Pl,40.638246,-74.024714,21,1,22
Lafayette Ave & Hunts Point Ave,40.816567,-73.888161,10,7,17
Manhattan Ave & Devoe St,40.713532,-73.9459867,20,3,23
Grand Concourse & E 166 St,40.83196,-73.91956,1,20,21
48 Ave & 5 St,40.744363287066875,-73.9558732509613,42,36,78
Webster Ave & E 166 St,40.828975,-73.911259,14,2,16
96 St & Northern Blvd,40.75712,-73.8722,7,11,18
W 106 St & Amsterdam Ave,40.8008363,-73.9664492472,0,26,26
Newport PATH,40.7272235,-74.0337589,13,4,17
E Mosholu Pkwy & E 204 St,40.8740704,-73.8833650931,9,2,11
E 16 St & Cortelyou Rd,40.64173,-73.96364,18,2,20
39 Ave & 56 St,40.74838,-73.90699,5,13,18
37 St & 24 Ave,40.7701477,-73.9120938,6,11,17
E 47 St & 1 Ave,40.75206862,-73.96784384,14,53,67
Sullivan St & Washington Sq,40.73047747,-73.99906065,20,26,46
57 St & 4 Ave,40.642622,-74.016866,18,2,20
Bialystoker Pl & Delancey St,40.71622644,-73.98261206,5,23,28
Henry St & Grand St,40.714211,-73.981095,13,23,36
Pioneer St & Van Brunt St,40.679043,-74.011169,14,17,31
Waverly Ave & Lafayette Ave,40.688231,-73.966804,7,10,17
Murray St & Greenwich St,40.714851505262516,-74.01122331619263,42,4,46
E 60 St & York Ave,40.759107,-73.959223,14,19,33
Dahill Rd & 12 Ave,40.646037,-73.980963,12,9,21
Waterbury St & Stagg St,40.71019,-73.93734,8,13,21
Greenwich St & Rector St,40.70806582380646,-74.0135595202446,50,7,57
E 58 St & Madison Ave,40.76302594280519,-73.97209525108337,62,0,62
24 St & 5 Ave,40.659555,-73.995068,18,0,18
Broadway & W 29 St,40.7462009,-73.98855723,22,76,98
E 171 St & Webster Ave,40.838379,-73.905838,13,2,15
E 48 St & 5 Ave,40.75724567911726,-73.97805914282799,54,5,59
Fulton St & Irving Pl,40.68186,-73.959432,12,10,22
3 St & Hoyt St,40.6777287,-73.99364123,40,4,44
39 Ave & 54 St,40.74891,-73.90899,5,12,17
Kosciuszko St & Tompkins Ave,40.69128258,-73.9452416,1,16,17
60 Pl & Linden St,40.70886,-73.90182,3,14,17
Grand Ave & 55 St,40.71888,-73.91427,8,8,16
E 7 St & Ave C,40.72412944090093,-73.97901266813278,3,35,38
Fort Washington Ave & W 183 St,40.852252,-73.937854,1,28,29
Wyckoff Ave & Stanhope St,40.703545,-73.917775,13,7,20
E 89 St & York Ave,40.7779453,-73.946041,9,23,32
Clinton St & Cherry St,40.711471394469264,-73.98672603070736,15,14,29
E 53 St & Madison Ave,40.7597108,-73.97402311,48,0,48
48 Ave & 41 St,40.73985995699164,-73.92400324344635,0,20,20
Spring St & Hudson St,40.72583996792375,-74.0076532959938,21,37,58
3 Ave & Carroll St,40.677027,-73.9865,25,1,26
Broadway & E 21 St,40.739888408589955,-73.98958593606949,40,12,52
W 56 St & 6 Ave,40.76340613,-73.97722479,41,2,43
Crotona Ave & Crotona Park N,40.84234,-73.89409,3,14,17
6 Ave & 55 St,40.640831,-74.010996,6,10,16
River Ter & Warren St,40.71759894980997,-74.01587963104248,43,12,55
Forsyth St & Grand St,40.71779817737835,-73.99316132068634,42,8,50
W 218 St & Indian Rd,40.873054589370895,-73.91837194561958,10,8,18
Bedford Ave & S 9 St,40.70853074,-73.96408963,8,9,17
78 St & Northern Blvd,40.75499,-73.88905,7,33,40
Prospect Pl & Nostrand Ave,40.67428,-73.9503,1,16,17
51 Ave & Van Loon St,40.73832,-73.87913,22,1,23
Westchester Ave & Jackson Ave,40.816124,-73.908116,1,18,19
E 82 St & East End Ave,40.7724607,-73.9468208,12,19,31
E 141 St & St Ann's Ave,40.808633,-73.916124,4,10,14
Broadway & 51 St,40.754164,-73.908906,15,11,26
Chauncey St & Malcolm X Blvd,40.68044,-73.92842,13,9,22
E 169 St & Fox St,40.827184,-73.893721,7,11,18
Knickerbocker Ave & Hancock St,40.69385,-73.90974,4,15,19
W 35 St & 9 Ave,40.75414519263519,-73.9960889518261,3,29,32
Davidson Ave & W Burnside Ave,40.853646,-73.908731,25,4,29
Marcy Ave & Lafayette Ave,40.6900815,-73.947915,7,10,17
Wyckoff Ave & Cooper Ave,40.69338,-73.90061,11,4,15
Woodhaven Blvd & Hoffman Dr,40.73303,-73.871,28,1,29
11 St & Washington St,40.74998490907138,-74.02715027332306,5,18,23
W 13 St & 5 Ave,40.735445,-73.99431,14,22,36
E 21 St & Church Ave,40.65007,-73.96001,22,0,22
Columbus Pl & Atlantic Ave,40.67717,-73.92285,3,18,21
Warren St & Roosevelt Ave,40.74919,-73.87054,4,18,22
Madison St & Malcolm X Blvd,40.68713,-73.93008,6,17,23
W 100 St & Manhattan Ave,40.795,-73.9645,1,25,26
W 46 St & 11 Ave,40.76341379,-73.99667444,14,3,17
Fairmount Pl & Prospect Ave,40.843099,-73.889927,0,16,16
20 Ave & 42 St,40.775415,-73.900063,12,8,20
Schenectady Ave & Maple St,40.66178,-73.93445,17,0,17
Fresh Pond Rd & Flushing Ave,40.72155,-73.90295,16,3,19
32 Ave & 84 St,40.75793,-73.88401,11,5,16
60 Ave & Junction Blvd,40.73466,-73.86501,22,0,22
7 St & Monroe St,40.74641264837719,-74.03797701001167,15,5,20
Lenox Ave & W 126 St,40.808442,-73.9452087,28,5,33
Macombs Rd & W 175 St,40.848177,-73.916082,1,14,15
Bergen St & Buffalo Ave,40.6747,-73.92512,7,10,17
3 Ave & E 172 St,40.839586,-73.900277,9,5,14
Greene Ave & Myrtle Ave,40.698568,-73.918877,19,4,23
64 St & 53 Dr,40.72897,-73.90115,14,0,14
Sharon St & Olive St,40.715341620424475,-73.93865078687668,7,12,19
Cedar St & Evergreen Ave,40.69671,-73.92807,4,15,19
Bainbridge Ave & Bedford Park Blvd,40.87002,-73.88565,19,0,19
33 St & 47 Ave,40.74283,-73.9321,15,7,22
Southwest Park - Jackson St & Observer Hwy,40.73755127245804,-74.04166370630264,6,13,19
Henry St & Remsen St,40.69400964865994,-73.99465128779411,6,16,22
Bedford Ave & Beverley Rd,40.64491,-73.95487,22,1,23
E 170 St & Sheridan Ave,40.838315,-73.912604,2,24,26
Degraw St & Smith St,40.6829151,-73.99318208,5,11,16
Front St & Washington St,40.70255088,-73.98940236,52,4,56
37 Ave & 113 St,40.75475,-73.8549,25,2,27
Ocean Ave & Crooke Ave,40.65326,-73.96172,23,3,26
W 116 St & Broadway,40.8082,-73.9641,3,28,31
W Tremont Ave & Matthewson Rd,40.853827,-73.920765,9,5,14
E 128 St & Madison Ave,40.80756,-73.939182,12,11,23
Valentine Ave & E 181 St,40.854123869116,-73.89932222664356,9,9,18
Macon St & Nostrand Ave,40.6809833854,-73.9500479759,14,1,15
5 Ave & E 135 St,40.812191,-73.937838,4,14,18
Butler St & 27 Ave,40.76521,-73.86483,17,1,18
Macombs Rd & Featherbed Ln,40.84552,-73.91722,14,0,14
30 Ave & 41 St,40.763422,-73.914142,0,23,23
Tompkins Ave & Hopkins St,40.69957608,-73.94708417,16,0,16
Menahan St & Onderdonk Ave,40.70553,-73.9096,1,14,15
Sterling St & Nostrand Ave,40.66318,-73.95076,6,9,15
7 Ave & 17 St,40.660937794931684,-73.98680448532104,1,10,11
W 50 St & 9 Ave,40.763604677958625,-73.98917958140373,0,20,20
E Houston St & Columbia St,40.71978635452822,-73.97871628403664,36,12,48
Fulton St & Utica Ave,40.6794268,-73.9298911,18,0,18
Grand St & Elizabeth St,40.718822,-73.99596,30,7,37
New York Ave & St Marks Ave,40.67514,-73.94716,0,21,21
Vernon Blvd & 50 Ave,40.74232744,-73.95411749,42,1,43
Bradley Ave & Greenpoint Ave,40.73565914819229,-73.93478840589523,21,0,21
E 25 St & 2 Ave,40.73912601,-73.97973776,2,76,78
W 36 St & 9 Ave,40.75462324029105,-73.99516761302948,1,42,43
36 Ave & 10 St,40.7614376,-73.9411265,5,14,19
E 49 St & Church Ave,40.65182,-73.93135,21,2,23
Graham Ave & Conselyea St,40.715143,-73.944507,23,7,30
Lispenard St & Broadway,40.71939226,-74.00247214,70,0,70
Paul Ave & Mosholu Pkwy,40.8802945,-73.8860653648,9,9,18
Center Blvd & 48 Ave,40.745038,-73.957539,18,3,21
Gerard Ave & McClellan St,40.833909,-73.92112,6,20,26
Metropolitan Ave & Flushing Ave,40.71334,-73.91572,15,1,16
Lenox Ave & W 140 St,40.817245,-73.938787,12,11,23
W 147 St & Adam Clayton Powell Blvd,40.82281,-73.937413,5,15,20
31 St & Broadway,40.76211,-73.92523,8,26,34
E 33 St & 1 Ave,40.74322681432173,-73.97449783980846,42,38,80
Marble Hill Ave & W 225 St,40.87471,-73.91099,16,5,21
Madison St & Cypress Ave,40.70068,-73.90742,5,8,13
Church Ave & McDonald Ave,40.642809,-73.979239,21,4,25
23 St & 3 Ave,40.662611,-73.998623,21,0,21
St Nicholas Terrace & Convent Ave,40.821294,-73.947868,0,19,19
Eastern Pkwy & Troy Ave,40.66929,-73.93679,0,21,21
Queens Plaza North & Crescent St,40.75110165,-73.94073717,24,16,40
Lenox Rd & E 43 St,40.65496,-73.93765,16,3,19
108 St & 52 Ave,40.74310053056842,-73.85466891367044,5,30,35
Menahan St & Central Ave,40.69543,-73.9196,3,20,23
Columbus Drive,40.71835519823214,-74.03891444206238,6,6,12
Church Ave & E 42 St,40.65127,-73.93818,8,15,23
8 St & Washington St,40.745983882915624,-74.02819901704788,2,16,18
Broadway & W 131 St,40.817555,-73.957163,15,1,16
62 St & 4 Ave,40.639859,-74.019776,10,5,15
Cumberland St & Lafayette Ave,40.68753406,-73.97265183,17,12,29
Ditmars Blvd & 94 St,40.7702,-73.87587,16,0,16
1 Ave & E 16 St,40.73221853,-73.98165557,4,49,53
Lexington Ave & Patchen Ave,40.6904,-73.9277,1,8,9
61 St & Laurel Hill Blvd,40.7388,-73.90338,11,6,17
Rogers Ave & Lenox Rd,40.65378,-73.95273,9,10,19
4 Ave & 26 St,40.660079,-73.998633,19,1,20
Willow Ave & E 133 St,40.800933,-73.913863,17,0,17
Classon Ave & St Marks Ave,40.676513,-73.959431,5,17,22
Bradhurst Ave & W 148 St,40.825125,-73.941616,3,12,15
Broadway & W 48 St,40.76017739537783,-73.98486793041229,55,44,99
9 Ave & W 33 St,40.752568,-73.996765,57,35,92
Cortelyou Rd & Stratford Rd,40.63966,-73.96807,10,8,18
3 Ave & E 163 St,40.823872,-73.908699,25,0,25
Pike St & Monroe St,40.71173107,-73.99193043,9,18,27
40 Ave & 9 St,40.75742,-73.945133,12,7,19
44 St & 3 Ave,40.651173,-74.011405,20,3,23
53 St & 5 Ave,40.643371,-74.011884,3,27,30
Parade Pl & Crooke Ave,40.651847,-73.965248,23,4,27
Lafayette St & E 8 St,40.73020660529954,-73.99102628231049,81,21,102
52 St & 6 Ave,40.642703,-74.009441,2,17,19
Church Ave & Story St,40.642031,-73.981073,6,16,22
Westchester Ave & E 156 St,40.817802,-73.905203,12,6,18
34 St & 38 Ave,40.752443,-73.929737,7,17,24
65 St & 2 Ave,40.640493,-74.02564,21,0,21
Crown St & Rogers Ave,40.66639,-73.95346,2,15,17
Westchester Ave & Southern Blvd,40.824956,-73.891677,5,12,17
Dey St,40.737711,-74.066921,6,11,17
W 4 St & 7 Ave S,40.73401143,-74.00293877,29,21,50
35 St & 21 Ave,40.776745,-73.906558,4,18,22
63 St & 5 Ave,40.63766,-74.01782,18,3,21
42 Pl & Northern Blvd,40.753091,-73.920603,24,1,25
E 7 St & Ave A,40.72621788,-73.98379855,13,23,36
1 Pl & Clinton St,40.6809591,-73.99905709,1,25,26
W 30 St & 10 Ave,40.752694,-74.002353,20,24,44
W 22 St & 8 Ave,40.74475148,-73.99915362,1,63,64
Grand St & Havemeyer St,40.71286844,-73.95698119,17,10,27
Pershing Field,40.742677141,-74.051788633,7,6,13
Grand Concourse & E 164 St,40.829608,-73.921461,0,22,22
Fresh Pond Rd & 69 Ave,40.70311,-73.89547,1,24,25
Putnam Ave & Wyckoff Ave,40.69811,-73.90904,8,14,22
Frederick Douglass Blvd & W 145 St,40.823061,-73.941928,10,17,27
Bergen Ave & Sip Ave,40.73100888698729,-74.06443700194359,29,1,30
Washington Ave & Empire Blvd,40.66314,-73.9605695,9,14,23
3 St & 3 Ave,40.6750705,-73.98775226,75,0,75
Vyse Ave & E 181 St,40.84463,-73.87988,5,13,18
W 59 St & 10 Ave,40.770513,-73.988038,22,86,108
Broadway & W 165 St,40.839137,-73.941409,3,17,20
Broadway & W 36 St,40.75097711,-73.98765428,11,65,76
Park Ave & E 42 St,40.751873,-73.977706,16,65,81
Cortelyou Rd & Argyle Rd,40.64034,-73.96603,16,3,19
5 Corners Library,40.734961020009514,-74.0595030784607,9,9,18
W 27 St & 7 Ave,40.74665,-73.99392,16,57,73
60 Pl & 67 Ave,40.70497,-73.89965,0,14,14
21 Ave & Shore Blvd,40.783956,-73.916894,7,8,15
Nagle Ave & Ellwood St,40.86012,-73.928489,20,0,20
Washington Ave & Park Pl,40.675832,-73.963308,0,26,26
Ocean Pkwy & Church Ave,40.644718957635746,-73.97451460361481,7,9,16
Greenpoint Ave & West St,40.729803,-73.959099,30,4,34
St Nicholas Ave & Manhattan Ave,40.809725,-73.953149,20,0,20
Newark Ave,40.72152515,-74.046304543,8,13,21
Corona Ave & 102 St,40.74419,-73.8619,21,0,21
38 St & 30 Ave,40.764174520197685,-73.91583994030952,4,21,25
MacDougal St & Rockaway Ave,40.68018,-73.91136,13,6,19
35 St & 30 Ave,40.76547569244953,-73.91811579465866,2,27,29
Herkimer St & Eastern Pkwy,40.67738,-73.90829,15,4,19
Macon St & Patchen Ave,40.68374,-73.9261,6,8,14
W 25 St & 9 Ave,40.747832605837715,-74.0005722643582,16,48,64
Riverside Dr & W 148 St,40.829114,-73.950426,1,20,21
21 St & 36 Ave,40.7601853,-73.9362726,8,10,18
Tiebout Ave & E Fordham Rd,40.861915,-73.894831,3,21,24
65 St & Broadway,40.749372273899596,-73.89738768339157,1,13,14
W 225 St & Exterior St,40.873265,-73.906646,15,1,16
W 211 St & 10 Ave,40.86709406268147,-73.9172950387001,16,1,17
Willow Ave & 12 St,40.7518674823282,-74.03037697076797,1,12,13
48 St & 5 Ave,40.646351,-74.009271,1,23,24
3 Ave & E 62 St,40.76313,-73.96527,20,31,51
Sherman Ave & Thayer St,40.863124,-73.926994,13,3,16
Suydam St & Broadway,40.69544,-73.93223,13,14,27
Spruce St & Nassau St,40.71146364,-74.00552427,17,14,31
47 Ave & 48 St,40.74086,-73.91708,4,14,18
52 St & 1 Ave,40.649292,-74.020105,16,4,20
Fulton St & Saratoga Ave,40.67853,-73.91642,4,15,19
Lorimer St & Calyer St,40.72795,-73.95414,11,9,20
62 St & Northern Blvd,40.754176,-73.900318,22,5,27
Graham Ave & Grand St,40.711863,-73.944024,9,16,25
21 St & 38 Ave,40.7576314,-73.9391224,1,18,19
West St & Chambers St,40.71754834,-74.01322069,99,7,106
48 St & Skillman Ave,40.74622874694195,-73.91616314649582,0,20,20
69 St & 38 Ave,40.74694504524519,-73.89650255441666,4,20,24
Grand Ave & Remsen Pl,40.72353,-73.89967,19,2,21
Amsterdam Ave & W 131 St,40.816355,-73.954295,16,1,17
Ash St & Manhattan Ave,40.738095,-73.954867,11,15,26
Amsterdam Ave & W 119 St,40.8086249,-73.9596214,16,9,25
India St & Manhattan Ave,40.73232194,-73.9550858,43,6,49
E 76 St & Park Ave,40.773763,-73.96222088,10,16,26
2 Ave & E 122 St,40.8006721,-73.9349,22,0,22
Columbus Ave & W 103 St,40.7969347,-73.9643412291,10,21,31
Judge St & Britton Ave,40.74454,-73.88112,7,14,21
Richardson St & N Henry St,40.71907891179564,-73.94223690032959,6,19,25
E 44 St & 2 Ave,40.75118387463277,-73.97138714790344,6,31,37
Walton Ave & E 168 St,40.83649,-73.918316,4,12,16
31 Ave & 34 St,40.763154,-73.920827,10,13,23
Irving Ave & DeKalb Ave,40.7027,-73.92095,18,4,22
E 65 St & 2 Ave,40.76471851944339,-73.96222069859505,7,36,43
23 Ave & 31 St,40.77423301703027,-73.91274864321404,18,5,23
28 Ave & 44 St,40.76408932350688,-73.91065120697021,1,15,16
1 Ave & E 62 St,40.7612274,-73.96094022,7,36,43
42 St & 1 Ave,40.654798,-74.014372,16,2,18
Boston Rd & West Farms Rd,40.83998,-73.8806,20,1,21
Leonard Gordon Park,40.74590996631558,-74.0572714805603,6,6,12
Humboldt St & Varet St,40.7031724,-73.940636,38,1,39
5 Ave & E 103 St,40.7922553,-73.95249933,29,1,30
White St & Moore St,40.704508,-73.9351,20,0,20
21 Ave & 80 St,40.770888,-73.889914,15,3,18
Johnson St & Gold St,40.69474881,-73.98362464,26,9,35
24 Ave & 29 St,40.7729,-73.916142,20,25,45
Myrtle Ave & Fleet Pl,40.693534,-73.981909,30,8,38
Amsterdam Ave & W 167 St,40.839443,-73.937044,3,18,21
Morgan Ave & Maspeth Ave,40.716657,-73.93637,21,4,25
Kingston Ave & Carroll St,40.66688,-73.9425,5,12,17
W 110 St & Amsterdam Ave,40.802692,-73.96295,3,41,44
Morris Ave & E 171 St,40.83899,-73.9109,13,6,19
71 St & 32 Ave,40.75675,-73.89595,11,7,18
41 St & 3 Ave,40.652512,-74.008906,17,2,19
W 146 St & Broadway,40.826969,-73.949738,0,29,29
West End Ave & W 107 St,40.8021174,-73.9681805305,0,23,23
7 Ave & W 55 St,40.764126,-73.980973,12,52,64
Borden Ave & Review Ave,40.73866345465306,-73.94093804061413,17,1,18
W 20 St & 7 Ave,40.74238787,-73.99726235,2,27,29
E 171 St & 3 Ave,40.837119,-73.902185,18,3,21
E 51 St & Linden Blvd,40.65399,-73.92967,18,1,19
Graham Ave & Herbert St,40.71929301,-73.94500379,8,15,23
New York Ave & Hawthorne St,40.65794,-73.94735,19,1,20
65 St & Otto Rd,40.70389,-73.89116,0,0,0
Union St,40.7182113,-74.0836394,17,1,18
21 St & 4 Ave,40.662584,-73.995554,10,4,14
W 140 St & Riverside Dr,40.824013,-73.954743,0,22,22
Greenpoint Ave & Monitor St,40.73224,-73.94383,14,3,17
Prospect Ave & Jennings St,40.831762,-73.896853,2,14,16
Broadway & Hancock St,40.68663,-73.9168,2,32,34
Mama Johnson Field - 4 St & Jackson St,40.74313993965626,-74.04004096984863,12,10,22
8 Ave & W 16 St,40.740983,-74.001702,23,9,32
Mt Morris Park W & W 120 St,40.804038,-73.945925,17,3,20
Jerome Ave & W 177 St,40.850121,-73.910765,28,0,28
River St & 1 St,40.73721535335381,-74.02886540972803,21,2,23
W 104 St & Amsterdam Ave,40.799041392882984,-73.96649479866028,0,34,34
Longfellow Ave & E 165 St,40.825322,-73.887729,11,6,17
Hudson Blvd W & W 36 St,40.75676475086503,-73.99971440439913,15,31,46
Corona Ave & 98 St,40.74448,-73.86516,7,11,18
Bailey Ave & W 238 St,40.88417,-73.89793,15,2,17
Clarkson Ave & E 40 St,40.65592,-73.94068,26,4,30
Clermont Ave & Lafayette Ave,40.68764484,-73.96968902,13,38,51
30 St & 4 Ave,40.657743,-74.001141,15,1,16
W Mosholu Pkwy S & Sedgwick Ave,40.88226,-73.88702,6,30,36
W 218 St & Broadway,40.87139,-73.914318,7,18,25
Amsterdam Ave & W 66 St,40.7746671,-73.98470567,4,8,12
E 2 St & 2 Ave,40.72502876,-73.99069656,44,38,82
Gramercy Park N & Gramercy Park E,40.73795,-73.98509,21,22,43
Bergen St & Flatbush Ave,40.680944723477296,-73.97567331790923,7,8,15
36 Ave & 31 St,40.75651272984955,-73.92957486212252,9,17,26
Albemarle Rd & E 21 St,40.64741,-73.95933,8,9,17
Water St & Gouverneur Ln,40.70469667894968,-74.00803416967392,28,6,34
Park Pl & Utica Ave,40.67242,-73.93094,8,9,17
Willis Ave & E 143 St,40.812299,-73.92037,7,11,18
Meserole Ave & Manhattan Ave,40.72708584,-73.95299117,24,4,28
2 St & Park Ave,40.73915272763701,-74.0330819785595,2,13,15
Featherbed Ln & Nelson Ave,40.846011,-73.919637,7,11,18
E 5 St & Cooper Sq,40.72769,-73.990993,38,7,45
E 84 St & Park Ave,40.77862688,-73.95772073,7,37,44
67 Ave & Fresh Pond Rd,40.70575,-73.89676,4,20,24
Valentine Ave & E 183 St,40.856987,-73.898237,3,18,21
E 123 St & Lexington Ave,40.8029263,-73.9379,3,18,21
71 Ave & Myrtle Ave,40.70067,-73.89907,1,25,26
Crescent St & Broadway,40.7633589,-73.9286471,2,16,18
Anthony Ave & E 175 St,40.846465,-73.903869,2,13,15
53 St & Flushing Ave,40.71435,-73.91405,7,12,19
Bedford Ave & Nassau Ave,40.72311651,-73.95212324,0,20,20
E 33 St & 5 Ave,40.74765947,-73.98490707,30,26,56
62 St & 34 Ave,40.75201,-73.89986,16,6,22
Riverside Dr & W 72 St,40.78057799010334,-73.98562431335449,2,24,26
E 43 St & Madison Ave,40.75354681867074,-73.97896572947502,47,7,54
Hunts Point Ave & Bryant Ave,40.813991,-73.8855,9,11,20
Bank St & Washington St,40.7361967,-74.00859207,11,9,20
104 St & 32 Ave,40.75951,-73.86491,1,19,20
Sterling Pl & Classon Ave,40.6739411,-73.96026,1,19,20
Norman Ave & Leonard St,40.725819,-73.950815,20,10,30
Madison St & Montgomery St,40.713126,-73.984844,6,13,19
43 St & 50 Ave,40.73787237950538,-73.92264068126678,3,14,17
E 138 St & Park Ave,40.81263616769319,-73.92924964427948,19,0,19
Lafayette Ave & St James Pl,40.68851534,-73.9647628,10,16,26
Crotona Ave & E Fordham Rd,40.8579,-73.88147,13,7,20
Arthur Ave & E Tremont Ave,40.84616,-73.89322,3,11,14
4 Ave & E 12 St,40.732647,-73.99011,22,15,37
Van Cortlandt Park S & Dickinson Ave,40.88435,-73.88781,8,14,22
Pulaski St & Marcus Garvey Blvd,40.6933982,-73.939877,0,9,9
Clarkson Ave & Utica Ave,40.65666,-73.93109,11,7,18
Adam Clayton Powell Blvd & W 126 St,40.809495347779475,-73.94776493310928,21,3,24
86 St & 37 Ave,40.75,-73.88062,2,16,18
43 St & Broadway,40.7577284,-73.9166368,3,16,19
3 St & 7 Ave,40.6703837,-73.97839676,3,17,20
Carroll St & Franklin Ave,40.6679411,-73.9588,1,11,12
Broadway & W 142 St,40.824686,-73.951947,0,21,21
Broadway & Furman Ave,40.68139,-73.90756,7,21,28
3 Ave & E 112 St,40.795508,-73.941606,17,3,20
River Ave & E 151 St,40.822217,-73.928939,21,2,23
72 St & Woodside Ave,40.74288,-73.89283,10,8,18
32 Ave & 75 St,40.75704,-73.8924,13,5,18
9 Ave & W 45 St,40.76019252,-73.9912551,2,25,27
Fairview Ave & Linden St,40.70694,-73.90632,0,14,14
W 36 St & 7 Ave,40.752149,-73.989539,10,27,37
E 53 St & 3 Ave,40.75763227739443,-73.96930575370789,20,21,41
Prospect Ave & Longwood Ave,40.81899,-73.90202,2,24,26
Washington Ave & E 174 St,40.843079,-73.900216,15,4,19
White St & Johnson Ave,40.707174,-73.93581,23,0,23
Vernon Blvd & 47 Rd,40.7449067,-73.9534573,9,20,29
Washington Pl & Broadway,40.72903917,-73.99404649,17,2,19
Isham St & Broadway,40.86788,-73.919685,14,11,25
Amsterdam Ave & W 156 St,40.832081,-73.942386,0,27,27
12 Ave & W 40 St,40.76087502,-74.00277668,35,35,70
Pacific St & Thomas S. Boyland St,40.67568,-73.91396,2,17,19
W Broadway & W Houston St,40.726378,-74.000472,26,23,49
Eames Pl & Claflin Ave,40.8692,-73.90121,4,16,20
Skillman Ave & 54 St,40.745502,-73.909887,7,10,17
Brook Ave & E 157 St,40.820713,-73.911759,7,5,12
34 Ave & Vernon Blvd,40.76535380385866,-73.93986314535141,5,25,30
46 St & 7 Ave,40.644743,-74.003754,5,12,17
45 Rd & 11 St,40.74708586,-73.94977234,4,19,23
Jerome Ave & W Fordham Rd,40.86294,-73.90108,8,14,22
Rugby Rd & Beverley Rd,40.64435,-73.96591,21,2,23
Troy Ave & Park Pl,40.67251,-73.93642,12,6,18
Madison Ave & E 26 St,40.742684734875695,-73.98671329021454,34,40,74
Adam Clayton Powell Blvd & W 118 St,40.804372,-73.951475,9,14,23
University Ave & W Burnside Ave,40.85501,-73.910751,1,23,24
W 31 St & 7 Ave,40.749156,-73.9916,2,76,78
Arthur Ave & E 183 St,40.85307,-73.88953,14,11,25
W 70 St & Amsterdam Ave,40.77748046,-73.98288594,6,31,37
Putnam Ave & Knickerbocker Ave,40.69545,-73.91164,14,12,26
Broadway & W 238 St,40.88524,-73.90077,28,0,28
97 St & 57 Ave,40.73727,-73.86415,17,1,18
Macon St & Howard Ave,40.68452,-73.92011,4,14,18
Parkside Ave & Parade Pl,40.6532,-73.96639,11,3,14
Cortelyou Rd & E 19 St,40.64269,-73.96099,17,3,20
Hughes Ave & Oak Tree Pl,40.85079,-73.88945,12,5,17
Motorgate,40.7639089,-73.9477213,25,8,33
93 St & Northern Blvd,40.7564,-73.87504,8,13,21
Sedgwick Ave & Hillman Ave,40.88224,-73.89136,10,14,24
Prospect Pl & Vanderbilt Ave,40.67767534,-73.96902144,16,7,23
71 St & 37 Ave,40.7488,-73.89451,0,21,21
St Marks Pl & 1 Ave,40.72779126,-73.98564945,11,57,68
Broadway & W 220 St,40.872412,-73.912807,10,6,16
Huron St & Franklin St,40.73266,-73.95826,28,6,34
Lewis Ave & Decatur St,40.6814598,-73.934903,10,5,15
E 3 St & 1 Ave,40.72467721,-73.98783413,13,44,57
Bedford Ave & Montgomery St,40.665816,-73.956934,3,16,19
W 145 St & Amsterdam Ave,40.825244,-73.947257,1,20,21
Park Ave & E 124 St,40.8045555,-73.9396861,4,19,23
Winthrop St & Nostrand Ave,40.65707,-73.95005,15,4,19
E 22 St & 2 Ave,40.73716919369882,-73.98122549057007,9,30,39
Boerum St & Broadway,40.70538077,-73.94976519,12,6,18
1 Ave & E 68 St,40.76500525,-73.95818491,29,12,41
Grand Army Plaza & Plaza St West,40.6729679,-73.97087984,8,31,39
Broadway & W 192 St,40.857994,-73.932173,14,6,20
34 St & 48 Ave,40.740821207823245,-73.93147185444832,9,14,23
Vernon Blvd & 10 St,40.7671863,-73.9373554,25,14,39
E 4 St & Ave B,40.723346832180155,-73.98265913128853,20,17,37
E 14 St & 1 Ave,40.73139303364151,-73.98286700248718,16,13,29
Pacific St & Sackman St,40.67522,-73.9061,14,2,16
31 Ave & 14 St,40.7682,-73.9322662,14,4,18
Monroe St & Patchen Ave,40.68814,-73.92693,0,13,13
Ditmars Blvd & 19 St,40.78145,-73.9183302,10,15,25
Edgecombe Ave & W 150 St,40.826881,-73.941427,3,11,14
Brunswick St,40.7241765,-74.0506564,0,22,22
Hoyt St & Warren St,40.6843549,-73.98901629,26,4,30
79 St & Roosevelt Ave,40.74718,-73.88675,0,22,22
Southern Blvd & Xavier Way,40.86149,-73.88103,4,24,28
Matthews Ct & Coney Island Ave,40.64235,-73.96951,18,2,20
31 Ave & Steinway St,40.7611488,-73.9170071,6,18,24
Bailey Ave & Sedgwick Ave,40.86571,-73.90857,4,15,19
Sterling St & Bedford Ave,40.6627059,-73.9569115,6,10,16
W 160 St & St Nicholas Ave,40.834468,-73.939865,0,22,22
Faile St & Garrison Ave,40.820578,-73.888271,6,9,15
Hanson Pl & Ashland Pl,40.68506807308177,-73.97790759801863,16,4,20
E 48 St & 3 Ave,40.7546011026,-73.971878855,33,45,78
33 St & Queens Blvd,40.7443653191867,-73.93172398209572,10,13,23
Leonard St & Boerum St,40.70583339,-73.94644578,18,3,21
E 6 St & Ave B,40.72453734,-73.98185424,24,70,94
100 St & Lewis Ave,40.73988,-73.86012,13,7,20
Anderson Ave & W 164 St,40.832057,-73.927421,1,18,19
48 St & 2 Ave,40.650176,-74.015606,18,0,18
W 20 St & 8 Ave,40.74345335,-74.00004031,13,65,78
Roebling St & N 4 St,40.71469,-73.95739,19,2,21
43 St & 23 Ave,40.769673,-73.906018,10,8,18
Emerson Pl & Myrtle Ave,40.69363137,-73.96223558,31,31,62
Henry St & W 9 St,40.6763744,-74.00324957,11,6,17
90 St & 32 Ave,40.75836,-73.87824,16,0,16
Eastern Pkwy & Schenectady Ave,40.66876,-73.93376,5,14,19
81 St & 24 Ave,40.76466,-73.88803,18,1,19
E 51 St & 2 Ave,40.755293,-73.967641,0,36,36
Ithaca St & Baxter Ave,40.74638,-73.88322,6,15,21
Central Park W & W 91 St,40.788664991278836,-73.96680057048798,5,38,43
Shea Rd & Boat Basin Pl,40.75777,-73.84887,3,26,29
Jersey & 6th St,40.72528910781132,-74.04557168483734,7,6,13
Fort Washington Ave & W 173 St,40.84522,-73.940493,1,19,20
Madison St & Clinton St,40.71269042,-73.98776323,19,18,37
37 Ave & 35 St,40.7531106,-73.9279917,13,12,25
28 St & 36 Ave,40.757186,-73.932719,20,6,26
9 Ave & W 22 St,40.7454973,-74.00197139,18,32,50
9 St & 44 Rd,40.74966,-73.9521,30,4,34
St Marks Ave & Thomas S. Boyland St,40.67313,-73.91387,5,15,20
Lewis Ave & Greene Ave,40.68995,-73.9365,6,14,20
E 178 St & Monterey Ave,40.84749,-73.89464,9,11,20
Jerome Ave & E 198 St,40.87144520687118,-73.89289632439613,2,13,15
Monroe St & Classon Ave,40.6845683,-73.95881081,5,4,9
5 Ave & E 87 St,40.78232260730881,-73.95987510681152,28,4,32
Macon St & Lewis Ave,40.68282,-73.93488,9,7,16
Nelson Ave & W 172 St,40.843965,-73.920999,7,8,15
W 82 St & Central Park W,40.78275,-73.97137,9,33,42
3 Ave & E Tremont Ave,40.84649,-73.89616,14,7,21
E New York Ave & Troy Ave,40.66227,-73.93762,19,0,19
E 11 St & Ave B,40.72746420692392,-73.97950418293476,25,35,60
Grand Concourse & E 197 St,40.86945,-73.89148,3,17,20
99 St & 38 Ave,40.75055,-73.86725,0,27,27
Steinway St & Broadway,40.75905795418586,-73.91897544264793,17,14,31
E 2 St & Ave A,40.72307749068673,-73.98583620786667,29,33,62
Myrtle Ave & Linden St,40.69943,-73.91337,6,18,24
Nostrand Ave & Rutland Rd,40.6595,-73.95041,16,3,19
Van Cleef St & 108 St,40.74096,-73.85357,2,16,18
W 47 St & 10 Ave,40.76269882,-73.99301222,12,17,29
Atlantic Ave & Furman St,40.69165183,-73.9999786,24,8,32
28 Ave & 35 St,40.7671,-73.9169858,8,18,26
40 St & Queens Blvd,40.743540273428685,-73.92435193061829,4,20,24
1 Ave & E 38 St,40.746202,-73.971822,7,29,36
Prospect Pl & Howard Ave,40.67261,-73.91977,3,15,18
5 St & 51 Ave,40.7423737,-73.9566,6,15,21
Putnam Ave & Nostrand Ave,40.68402,-73.94977,4,3,7
Sands St Gate,40.699569,-73.979827,10,2,12
28 St & 41 Ave,40.751047,-73.93797,13,12,25
Boston Rd & Prospect Ave,40.833246,-73.896599,2,17,19
41 Ave & 67 St,40.74446,-73.89764,6,14,20
Roosevelt Ave & 104 St,40.74984,-73.86156,2,21,23
Boston Rd & E 167 St,40.828199,-73.903719,1,15,16
Kingsland Ave & Nassau Ave,40.72577,-73.94173,14,7,21
National St & 45 Ave,40.74582,-73.86433,12,8,20
Windsor Pl & 8 Ave,40.660906,-73.983074,1,16,17
South Waterfront Walkway - Sinatra Dr & 1 St,40.73698221818716,-74.02778059244156,19,10,29
63 St & Borden Ave,40.72655,-73.90321,18,0,18
Clark St & Henry St,40.69760127,-73.99344559,2,38,40
31 St & 21 Ave,40.77813,-73.90842,10,13,23
Grand Concourse & E 156 St,40.823429,-73.924689,7,6,13
W 37 St & 5 Ave,40.75038009,-73.98338988,21,37,58
3 Ave & E 169 St,40.832678,-73.905158,4,16,20
Old Broadway & W 133 St,40.818212,-73.955277,16,2,18
Lafayette Ave & Stuyvesant Ave,40.6919925157634,-73.9325501024723,6,12,18
DeKalb Ave & Bedford Ave,40.690894,-73.955195,11,7,18
Brooklyn Ave & Prospect Pl,40.67412,-73.94447,6,16,22
65 Pl & 53 Ave,40.73145,-73.90022,15,3,18
Kent Ave & Grand St,40.716425,-73.96594,41,1,42
Clinton St & Union St,40.6831164,-73.99785267,4,32,36
5 Ave & W 139 St,40.815484,-73.935856,5,12,17
Lexington Ave & E 36 St,40.747573958954796,-73.9788007736206,5,12,17
60 St & 37 Ave,40.74952,-73.90265,15,3,18
25 Ave & 85 St,40.76328,-73.88404,18,1,19
Pleasant Ave & E 116 St,40.79499,-73.93333,18,0,18
Metropolitan Ave & Vandervoort Ave,40.71429,-73.93323,23,0,23
Concourse Village East & E 158 St,40.823732,-73.919379,6,18,24
Palmetto St & Traffic Ave,40.70929,-73.89441,10,7,17
E 149 St & Jackson Ave,40.813135,-73.909235,5,17,22
W 40 St & 7 Ave,40.754818,-73.988154,4,33,37
Irving Ave & Jefferson St,40.70538,-73.92535,13,5,18
W 160 St & Riverside Dr,40.83719,-73.9466,9,12,21
E 51 St & Lexington Ave,40.75714758,-73.97207836,67,7,74
Lafayette St & Grand St,40.72028,-73.99879,47,29,76
City Hall - Washington St & 1 St,40.73736,-74.03097,0,17,17
E 138 St & 5 Ave,40.81449,-73.936153,7,13,20
Wyckoff St & 3 Ave,40.6827549,-73.98258555,15,3,18
Wallabout St & Kent Ave,40.6991049,-73.960633406,14,8,22
Caton Ave & E 7 St,40.647718,-73.973663,9,2,11
Grand Concourse & E Mosholu Pkwy S,40.877964,-73.8847550291,12,4,16
Sterling Pl & New York Ave,40.67234,-73.94763,0,16,16
E 10 St & 2 Ave,40.72970805644994,-73.9865979552269,30,13,43
E 12 St & 3 Ave,40.73223272,-73.98889957,22,44,66
E 77 St & 1 Ave,40.77095553869235,-73.95356208096926,3,45,48
Cauldwell Ave & E 158 St,40.81989,-73.908351,2,9,11
Decatur Ave & Oliver Pl,40.867,-73.8857764,19,1,20
Maiden Ln & Pearl St,40.70706456,-74.00731853,26,2,28
Thomas S. Boyland St & Macon St,40.68491,-73.91493,8,12,20
Leonard St & Nassau Ave,40.7239567849954,-73.94984364509583,21,12,33
Plaza St East & Flatbush Ave,40.673134,-73.969106,15,39,54
W Broadway & Watts St,40.72323,-74.00314,27,22,49
W 111 St & 5 Ave,40.797520781247556,-73.9489397406578,4,13,17
Lexington Ave & E 111 St,40.7954121,-73.9441232,20,6,26
8 Ave & W 31 St,40.7505853470215,-73.9946848154068,19,69,88
E 141 St & Jackson Ave,40.806896,-73.911837,6,12,18
Bushwick Ave & Harman St,40.69356,-73.92524,8,13,21
21 St & 23 Ave,40.778557,-73.919046,10,10,20
49 Ave & 21 St,40.74252,-73.948852,8,13,21
E 188 St & Hughes Ave,40.8561,-73.88625,14,5,19
Newton Rd & 44 St,40.7595701,-73.9142678,5,13,18
Melrose Ave & E 154 St,40.819609,-73.916071,14,2,16
7 Ave S & Bleecker St,40.73213896287381,-74.00363802909851,32,39,71
Summerfield St & Cypress Ave,40.69662,-73.90056,6,11,17
Broadway & Madison St,40.68822,-73.91966,7,12,19
E 169 St & Webster Ave,40.834015,-73.908863,13,5,18
Cypress Ave & George St,40.69812,-73.90271,11,7,18
Marion Ave & Mosholu Pkwy,40.8704956,-73.8818756582,10,8,18
W 51 St & 6 Ave,40.7606597,-73.98042047,67,9,76
Patchen Ave & Bainbridge St,40.68143,-73.92565,13,4,17
92 St & 35 Ave,40.7529,-73.87536,6,19,25
1 Ave & E 6 St,40.72633085971696,-73.98616880178452,31,61,92
11 St & 44 Rd,40.749207,-73.949373,18,8,26
9 Ave & W 39 St,40.756403523272496,-73.99410143494606,0,32,32
104 St & Northern Blvd,40.75755,-73.86454,12,9,21
Tyler Ave & Maurice Ave,40.73394,-73.90128,15,1,16
E New York Ave & Utica Ave,40.662686,-73.931755,9,8,17
11 Ave & Prospect Ave,40.65629,-73.977335,4,7,11
Central Park W & W 97 St,40.79249519495111,-73.96417066463071,0,41,41
Crescent Ave & Belmont Ave,40.85391,-73.8866,18,3,21
Bronx Shore Comfort Station,40.80046,-73.92404,12,9,21
Willoughby St & Fleet St,40.69196566,-73.9813018,37,16,53
Nassau Ave & Newell St,40.724812564400175,-73.94752621650696,26,22,48
Madison Ave & E 120 St,40.80295,-73.942954,14,13,27
W 148 St & Amsterdam Ave,40.827075,-73.945909,0,21,21
43 Ave & 111 St,40.74955,-73.85464,7,12,19
DeKalb Ave & Hudson Ave,40.689888,-73.981013,66,0,66
St Johns Pl & Utica Ave,40.6705,-73.9308,19,0,19
Verona Pl & Fulton St,40.6803560840434,-73.9476791024208,7,4,11
Smith St & 3 St,40.6787242,-73.99599099,6,17,23
34 Ave & 45 St,40.754795,-73.917014,2,19,21
5 St & 6 Ave,40.6704836,-73.98208968,8,9,17
Goble Pl & Macombs Rd,40.844075,-73.917256,16,1,17
W 186 St & St Nicholas Ave,40.852253,-73.931308,7,19,26
Albany Ave & Carroll St,40.6667,-73.93972,5,8,13
61 St & Borden Ave,40.72558,-73.90417,17,3,20
Metropolitan Ave & 65 Ln,40.71225,-73.89111,24,0,24
Jefferson Ave & Evergreen Ave,40.68989,-73.91458,4,11,15
E 72 St & Park Ave,40.77118287540658,-73.96409422159195,7,8,15
University Ave & Morton Pl,40.85118155499655,-73.91465058978447,11,9,20
Rogers Pl & E 165 St,40.82388366441761,-73.8974027708582,10,6,16
Southern Blvd & E 149 St,40.811892,-73.904192,25,0,25
St Johns Pl & Washington Ave,40.6737236,-73.9631611,0,26,26
Berry St & N 8 St,40.7190095,-73.95852515,20,7,27
College Ave & E 170 St,40.837576,-73.910489,3,19,22
Steinway St & Ditmars Blvd,40.772717,-73.906127,8,11,19
Amsterdam Ave & W 73 St,40.77966809007312,-73.98093044757842,11,42,53
Garfield Pl & 8 Ave,40.6711978,-73.97484126,1,18,19
W 133 St & 12 Ave,40.820003,-73.959089,16,1,17
E 163 St & Union Ave,40.822545,-73.901824,9,13,22
Caton Ave & Bedford Ave,40.65237,-73.95623,9,10,19
Shakespeare Ave & W 169 St,40.839312,-73.922423,12,2,14
7 Ave & Central Park South,40.7667405590595,-73.9790689945221,16,60,76
Carroll St & Utica Ave,40.66619,-73.93162,10,5,15
Thomas S. Boyland St & Fulton St,40.67854,-73.91367,0,24,24
Winthrop St & Albany Ave,40.6577,-73.9398,19,0,19
Laight St & Hudson St,40.72185379,-74.00771779,53,33,86
St James Pl & Oliver St,40.71307916,-73.99851193,33,11,44
50 St & Northern Blvd,40.753441,-73.912402,11,16,27
Degraw St & 3 Ave,40.67977,-73.9847,32,0,32
Ditmars Blvd & 73 St,40.76817,-73.896293,13,6,19
W 238 St & Tibbett Ave,40.88602,-73.90232,14,7,21
Ogden Ave & Merriam Ave,40.839142,-73.925961,6,13,19
23 Ave & 27 St,40.776165,-73.9153175,6,14,20
Lexington Ave & E 24 St,40.74025878,-73.98409214,4,74,78
Withers St & Kingsland Ave,40.71773,-73.94051,14,4,18
Flatbush Ave & Fenimore St,40.65798,-73.96051,10,7,17
30 Ave & 21 St,40.7703743,-73.9286078,5,9,14
E 25 St & 1 Ave,40.7381765,-73.97738662,10,22,32
Willis Ave & E 137 St,40.808384,-73.923604,7,3,10
Green St & McGuinness Blvd,40.73396,-73.95204,14,6,20
Bedford Ave & Maple St,40.66035,-73.95679,13,1,14
Bainbridge Ave & E 198 St,40.8684871,-73.8884559781,18,2,20
82 St & 30 Ave,40.76109,-73.88632,14,3,17
Ave A & E 14 St,40.73031071000895,-73.98047178983688,5,33,38
Carroll St & Rochester Ave,40.66598,-73.9284,11,8,19
Driggs Ave & N Henry St,40.72325,-73.94308,11,46,57
Washington Ave & E 163 St,40.824,-73.91089,13,4,17
W 106 St & Central Park W,40.7981856,-73.9605909006,9,40,49
Vernon Blvd & 31 Ave,40.7692475,-73.9354504,13,7,20
Adam Clayton Powell Blvd & W 130 St,40.812346,-73.946168,14,4,18
43 Ave & 47 St,40.7448062877224,-73.91728967428207,6,24,30
Vesey Pl & River Terrace,40.7153379,-74.01658354,50,0,50
Snyder Ave & Schenectady Ave,40.65,-73.93296,7,4,11
7 Ave & 40 St,40.648169,-74.000057,5,12,17
Woodside Ave & Roosevelt Ave,40.74549,-73.90605,11,5,16
Plaza Dr & W 170 St,40.840484,-73.917946,23,0,23
S 5 Pl & S 5 St,40.710451,-73.960876,34,4,38
1 Ave & E 118 St,40.797459,-73.934499,9,13,22
24 St & 38 Ave,40.756351,-73.936515,4,12,16
Broadway & Morris St,40.705945132708806,-74.01321887969969,54,0,54
Aqueduct Ave & W 190 St,40.8649213,-73.9024238,1,17,18
Cedar Ave & W Fordham Rd,40.86156,-73.91219,16,7,23
Grand Ave & Bergen St,40.678045,-73.962408,6,16,22
Marin Light Rail,40.71458403535893,-74.04281705617905,4,20,24
Prospect Park SW & 16 St,40.657265,-73.974165,6,19,25
Grand Ave & W 181 St,40.856302,-73.907302,4,13,17
E 133 St & Cypress Pl,40.80262,-73.9174,8,11,19
Louis Nine Blvd & Intervale Ave,40.831998,-73.892686,4,9,13
Stevens - River Ter & 6 St,40.74313282710551,-74.02698867022991,9,8,17
Fort Hamilton Pkwy & E 5 St,40.649037,-73.97673,15,0,15
Berkeley Pl & 7 Ave,40.675146838709786,-73.97523209452629,17,0,17
Queens Blvd & Broadway,40.73672,-73.87728,20,2,22
E 1 St & 1 Ave,40.72335597960796,-73.98864984512329,49,22,71
Carroll St & 6 Ave,40.6740886,-73.9787282,14,8,22
S 4 St & Roebling St,40.710709,-73.959724,7,31,38
West Farms Rd & Boone Ave,40.8301283948092,-73.88630211353302,18,0,18
Washington Ave & E 167 St,40.829896,-73.907618,3,11,14
Market St & Cherry St,40.71076228,-73.99400398,22,19,41
Duffield St & Willoughby St,40.69221589,-73.9842844,30,8,38
Franklin St & W Broadway,40.71911552,-74.00666661,17,6,23
W 54 St & 9 Ave,40.76604,-73.98737,0,32,32
Frederick Douglass Blvd & W 115 St,40.8038654,-73.9559308,12,16,28
Sedgwick Ave & W 231 St,40.87512,-73.90126,11,4,15
E 97 St & 3 Ave,40.7859201,-73.94860294,15,12,27
Gerard Ave & E 165 St,40.83173,-73.922394,5,14,19
Bay St & Court St,40.671409,-74.001328,20,6,26
9 Ave & W 219 St,40.871094,-73.911503,15,3,18
Cadman Plaza E & Red Cross Pl,40.69991755,-73.98971773,2,32,34
36 St & 3 Ave,40.655716,-74.006664,29,1,30
Wythe Ave & N 13 St,40.722767,-73.957021,41,0,41
11 St & 43 Ave,40.75177,-73.94821,4,21,25
Putnam Ave & Ralph Ave,40.68705,-73.92338,10,6,16
39 St & 47 Ave,40.74215636827728,-73.92662644386292,7,12,19
Grand Concourse & E 205 St,40.875531,-73.8863864831,17,2,19
Moffat St & Bushwick,40.68458,-73.90925,8,6,14
Schermerhorn St & Hoyt St,40.6886263,-73.9851911,3,24,27
Stagg St & Union Ave,40.70877084,-73.95095259,8,20,28
41 Ave & 80 St,40.74586,-73.88539,4,20,24
Park Ave & E 162 St,40.825716,-73.915585,9,7,16
Southern Blvd & E 142 St,40.807347437082,-73.90809774398804,7,16,23
Albemarle Rd & McDonald Ave,40.645074,-73.979681,7,12,19
Walton Ave & E 151 St,40.82090903827738,-73.92753845245076,24,0,24
Stanton St & Chrystie St,40.72229346,-73.99147535,38,7,45
Pike St & E Broadway,40.71406667,-73.99293911,31,1,32
Exchange Pl,40.71636596185077,-74.034343957901,29,0,29
E 54 St & 1 Ave,40.756265,-73.964179,4,37,41
South St & Pike St,40.70991806921533,-73.99161100387573,14,17,31
Riverside Dr & W 153 St,40.832164,-73.949702,0,20,20
Sterling Pl & Schenectady Ave,40.6716,-73.93378,6,11,17
Central Park W & W 68 St,40.7734066,-73.97782542,9,32,41
E Burnside Ave & Ryer Ave,40.850535,-73.901318,7,13,20
Waterloo Pl & Crotona Park East,40.839194,-73.888587,8,10,18
Giles Pl & Fort Independence St,40.87869,-73.89862,2,15,17
Jefferson Ave & Patchen Ave,40.68609,-73.92628,2,10,12
Douglass St & 3 Ave,40.6802133,-73.98432695,32,1,33
Clinton St & Newark St,40.73743,-74.03571,3,10,13
E 187 St & 3 Ave,40.85724,-73.8909,12,4,16
Hancock St & Wyckoff Ave,40.6972,-73.90674,4,10,14
Chauncey St & Howard Ave,40.68158,-73.91959,7,13,20
W 25 St & 6 Ave,40.74395411,-73.99144871,13,32,45
Central Ave & Decatur St,40.6882,-73.90798,10,10,20
Beverley Rd & E 49 St,40.64621,-73.93067,15,2,17
Grand Concourse & E 196 St,40.86767,-73.89286,0,24,24
Murray St & West St,40.71503,-74.01246,58,0,58
E 156 St & Courtlandt Ave,40.82123860172,-73.9173299074173,2,15,17
86 St & 35 Ave,40.7523,-73.88093,3,15,18
W Tremont Ave & Grand Ave,40.850036,-73.912785,5,13,18
76 St & 45 Ave,40.7411,-73.88837,11,6,17
Crescent St & 35 Ave,40.7596276,-73.9321455,3,20,23
99 St & Astoria Blvd,40.76196,-73.87042,17,6,23
Van Vorst Park,40.71848892,-74.047726625,10,11,21
Hancock St & Bedford Ave,40.68216564,-73.95399026,3,16,19
W 54 St & 6 Ave,40.761865,-73.977242,21,38,59
Division Ave & Marcy Ave,40.70708701,-73.95796783,8,22,30
87 St & 30 Ave,40.76156,-73.88167,16,2,18
84 St & Roosevelt Ave,40.74797,-73.88204,4,21,25
6 Ave & W 33 St,40.74901271,-73.98848395,7,62,69
President St & 4 Ave,40.676757,-73.983262,22,3,25
Barclay St & Church St,40.71291224,-74.01020234,22,12,34
55 St & 7 Ave,40.639673,-74.008957,3,15,18
82 St & Broadway,40.74281,-73.88296,17,8,25
Park Ave & E 179 St,40.85014,-73.89818,20,0,20
Prospect Park West & 8 St,40.66514681533792,-73.97637605667114,1,13,14
Lincoln Pl & Nostrand Ave,40.67077,-73.9507,2,18,20
E 144 St & Brook Ave,40.811675,-73.917037,7,7,14
Bridge St & Front St,40.702969341552716,-73.98469090461731,34,6,40
7 St & 5 Ave,40.6704922,-73.98541675,9,10,19
14 St & 5 Ave,40.666287,-73.98895053,9,10,19
Eastern Pkwy & Ralph Ave,40.66852,-73.92284,7,12,19
E 44 St & Lexington Ave,40.752643,-73.974996,39,6,45
10 St & 7 Ave,40.6662078,-73.98199886,11,5,16
31 St & Hoyt Ave N,40.7711528,-73.9170074,19,15,34
Brook Ave & E 148 St,40.814383,-73.915368,2,14,16
W 135 St & Lenox Terrace Pl,40.813619,-73.939336,11,18,29
E 95 St & 3 Ave,40.7849032,-73.950503,7,16,23
Webster Ave & Ford St,40.85556,-73.89615,20,1,21
Central Ave & Weirfield St,40.69055,-73.91181,11,10,21
E 68 St & 3 Ave,40.76712840349542,-73.96224617958069,6,27,33
Centre St & Worth St,40.71494807,-74.00234482,91,21,112
Riverside Dr & W 78 St,40.78414472,-73.98362492,4,71,75
12 Ave & 36 St,40.643546,-73.986418,15,6,21
Webb Ave & W 190 St,40.8660052,-73.904254892,9,10,19
75 St & Northern Blvd,40.75473,-73.8918,6,12,18
27 Ave & 9 St,40.7739825,-73.9309134,11,28,39
Commerce St & Van Brunt St,40.6812117,-74.00860912,13,1,14
Adams St & 12 St,40.751889392240685,-74.03329162748534,11,3,14
2 Ave & E 72 St,40.7687620293096,-73.95840793848038,15,39,54
Riverside Dr & Broadway,40.865364,-73.92791,15,8,23
Union Ave & Wallabout St,40.70029511,-73.95032283,24,5,29
Riverside Dr & W 104 St,40.8013434,-73.9711457439,1,45,46
5 Ave & E 78 St,40.77632142182271,-73.96427392959595,7,37,44
Underhill Ave & Pacific St,40.6804836,-73.9646795,0,16,16
3 Ave & E 100 St,40.7877214,-73.94728331,19,5,24
Pitt St & Stanton St,40.71926081,-73.98178024,7,8,15
60 Ave & Otis Ave,40.73715,-73.85614,13,6,19
47 Ave & 31 St,40.743,-73.93561,24,2,26
Pierrepont St & Monroe Pl,40.69535693320225,-73.99344027042389,1,14,15
E 30 St & Park Ave S,40.74444921,-73.98303529,5,59,64
Amory Ct & Metropolitan Ave,40.71301,-73.90968,5,14,19
Plaza St West & Flatbush Ave,40.6750207,-73.97111473,18,3,21
Seaman Ave & Isham St,40.869898661940454,-73.92076313495636,14,7,21
Audubon Ave & Fort George Ave,40.85715781391904,-73.92717361450195,5,14,19
Congress St & Clinton St,40.68825516598005,-73.99545192718506,20,13,33
Albany Ave & Fulton St,40.6800105,-73.938475,18,7,25
E 160 St & Tinton Ave,40.820302,-73.903944,2,15,17
103 St & Martense Ave,40.74046,-73.8565,8,9,17
21 St & 43 Ave,40.75052534,-73.94594845,12,15,27
31 St & Thomson Ave,40.74469738,-73.93540375,37,9,46
31 Ave & 61 St,40.757525,-73.901614,9,10,19
Hoboken Terminal - Hudson St & Hudson Pl,40.73593758446329,-74.03030455112457,21,4,25
Broadway & W 133 St,40.8190344,-73.956156,0,14,14
Bleecker St & Crosby St,40.72615604980408,-73.99510189890862,54,0,54
Adam Clayton Powell Blvd & W 123 St,40.8078316,-73.949373,24,4,28
Greene Ave & Throop Ave,40.6894932,-73.942061,0,15,15
77 St & 31 Ave,40.75886,-73.89081,14,1,15
Macombs Pl & W 152 St,40.826406,-73.937948,13,15,28
W 120 St & Claremont Ave,40.8109494,-73.9634,2,27,29
Kingston Ave & Park Pl,40.67308,-73.94191,4,8,12
Jersey & 3rd,40.72333158646436,-74.04595255851744,4,9,13
Frost St & Meeker Ave,40.71766197083994,-73.94880026578903,17,21,38
E 47 St & Park Ave,40.75510267,-73.97498696,65,5,70
Mott St & Prince St,40.72317958,-73.99480012,27,1,28
Paulus Hook,40.7141454,-74.0335519,13,0,13
55 Ave & Center Blvd,40.740288,-73.960697,10,16,26
Perry St & Greenwich Ave,40.735918,-74.000939,0,44,44
E 75 St & 3 Ave,40.77112927,-73.95772297,13,27,40
Jackson Mill Rd & 93 St,40.75874,-73.87535,8,11,19
48 St & 37 Ave,40.751555,-73.915026,4,24,28
88 St & Astoria Blvd,40.76424,-73.8812,11,9,20
W 12 St & Hudson St,40.73752993301071,-74.00558933615685,9,26,35
Grand St & Greene St,40.72170005235607,-74.00238141417502,30,13,43
Heights Elevator,40.748715945380226,-74.04044330120087,2,16,18
Bond St & Fulton St,40.6896218879,-73.9830426872,33,10,43
E 13 St & Ave A,40.72966729392978,-73.98067966103554,19,70,89
College Ave & E 169 St,40.835122799036405,-73.91196817159653,6,10,16
5 Ave & E 63 St,40.766368,-73.971518,19,29,48
Eastern Pkwy & Kingston Ave,40.66959,-73.94237,12,10,22
Central Park North & Adam Clayton Powell Blvd,40.799484,-73.955613,6,16,22
75 St & 35 Ave,40.75091,-73.89111,7,16,23
Amsterdam Ave & W 125 St,40.813358,-73.956461,31,5,36
Marble Hill Ave & W 227 St,40.87655,-73.90941,10,8,18
Linden St & Knickerbocker Ave,40.69714,-73.91566,6,11,17
Broadway & W 41 St,40.75513557,-73.98658032,26,15,41
20 Ave & Shore Blvd,40.785994,-73.915098,6,13,19
Sterling Pl & Ralph Ave,40.67095,-73.92222,2,14,16
W 116 St & Amsterdam Ave,40.8067581,-73.9607082,9,29,38
E 68 St & Madison Ave,40.7691572,-73.96703464,12,40,52
17 St & 5 Ave,40.663493,-73.991007,14,4,18
St Nicholas Ave & W 157 St,40.832314,-73.94102,8,11,19
Broadway & E 19 St,40.73829,-73.99006,45,45,90
Aqueduct Ave & North St,40.8604787,-73.9057169936,3,13,16
3 Ave & 17 St,40.666168,-73.995549,16,1,17
Bridge St & York St,40.70133448066992,-73.98471236228943,47,6,53
E 48 St & Tilden Ave,40.64795,-73.93182,14,11,25
Halsey St & Tompkins Ave,40.6823687,-73.944118,14,4,18
85 St & Northern Blvd,40.75601,-73.88266,10,7,17
E 189 St & Bathgate Ave,40.85859,-73.88821,15,4,19
Wythe Ave & Metropolitan Ave,40.716887,-73.963198,39,18,57
10 Ave & W 215 St,40.86932465640094,-73.91519755125046,17,1,18
Lee Ave & Taylor St,40.706732,-73.961241,19,5,24
2 Ave & E 96 St,40.7839636,-73.9471673,37,5,42
Columbia Heights & Cranberry St,40.70037867,-73.99548059,7,20,27
Bergen St & Smith St,40.6867443,-73.99063168,37,9,46
44 St & 2 Ave,40.652502,-74.013587,16,2,18
E 32 St & Park Ave,40.7457121,-73.98194829,21,30,51
West Drive & Prospect Park West,40.6610633719006,-73.97945255041122,1,19,20
W 41 St & 8 Ave,40.75640548,-73.9900262,1,103,104
Nagle Ave & Thayer St,40.861382,-73.925591,27,0,27
Broad St & Bridge St,40.70365182,-74.01167797,38,6,44
Bergen Ave,40.722103786686034,-74.07145500183105,2,11,13
E 182 St & Belmont Ave,40.85089,-73.88793,2,19,21
Monitor St & Meeker Ave,40.721226,-73.941845,4,16,20
25 Ave & 41 St,40.767666,-73.910963,2,21,23
Claflin Ave & Reservoir Ave,40.87398,-73.89943,5,11,16
Roosevelt Island Tramway,40.757284,-73.9536,12,25,37
McGinley Square,40.7253399253558,-74.06762212514877,1,20,21
59 St & 41 Ave,40.744577,-73.905986,19,1,20
4 Ave & 9 St,40.6705135,-73.98876585,25,4,29
Morris Ave & E Burnside Ave,40.85322,-73.90546,11,6,17
55 St & 5 Ave,40.642408,-74.013318,6,22,28
Liberty St & Nassau St,40.70858894,-74.00935482,30,15,45
30 Ave & 70 St,40.76013,-73.89741,10,7,17
Wyckoff Ave & Gates Ave,40.699871408829885,-73.91171872615814,24,2,26
President St & Henry St,40.6828003,-73.99990419,4,15,19
Division St & Bowery,40.71419,-73.99673,20,22,42
57 Ave & 98 Pl,40.73802,-73.86103,10,14,24
Bank St & Hudson St,40.73652889,-74.00618026,4,20,24
Clinton St & 7 St,40.74542,-74.03332,5,11,16
Corona Ave & 111 St,40.7408,-73.84978,19,2,21
Bushwick Ave & Powers St,40.71247661,-73.94100005,6,22,28
Chauncey St & Stuyvesant Ave,40.68012,-73.93168,25,0,25
41 Ave & 77 St,40.74557,-73.8882,7,14,21
Morningside Dr & Amsterdam Ave,40.81028506306003,-73.95736455917358,8,25,33
Kane St & Clinton St,40.6861758,-73.99645295,1,15,16
Centre St & Chambers St,40.71273266,-74.0046073,47,3,50
Fulton Ave & St Paul's Pl,40.83545,-73.90153,13,0,13
Clermont Ave & Park Ave,40.69573398,-73.97129668,1,10,11
91 St & 23 Ave,40.76768,-73.87899,19,3,22
Audubon Ave & W 192 St,40.85589030603889,-73.92708241939545,3,13,16
Queens Blvd & Albion Ave,40.73856,-73.88553,17,0,17
34 Ave & Junction Blvd,40.75502,-73.87285,4,14,18
Lefferts Ave & Schenectady Ave,40.66343,-73.93472,25,0,25
Nassau St & Navy St,40.69839895,-73.98068914,50,3,53
14 St & 7 Ave,40.663779,-73.98396846,1,14,15
Marcus Garvey Blvd & Macon St,40.682601,-73.938037,2,11,13
St Nicholas Ave & W 137 St,40.818477,-73.947568,3,14,17
Crotona Park East & E 173 St,40.837037,-73.890413,6,8,14
34 St & 35 Ave,40.7569332,-73.9262231,12,3,15
Brooklyn Ave & Snyder Ave,40.64915,-73.94368,21,0,21
E 40 St & 5 Ave,40.752062307,-73.9816324043,72,4,76
37 Ave & 63 St,40.74893,-73.89981,8,15,23
4 St & Grand St,40.7422579775645,-74.03511106967926,3,15,18
Harlem River Dr & W 155 St,40.830476,-73.939929,2,17,19
W 43 St & 10 Ave,40.76009437,-73.99461843,13,94,107
50 St & Barnett Ave,40.750097682094825,-73.91349703073502,3,21,24
W 52 St & 11 Ave,40.76727216,-73.99392888,10,40,50
6 St & Grand St,40.744397833095604,-74.03450086712837,2,14,16
4 Ave & 17 St,40.665507,-73.993037,20,2,22
Fort Hamilton Pkwy & E 2 St,40.648005,-73.979342,13,0,13
Montrose Ave & Bushwick Ave,40.70767788,-73.94016171,6,33,39
Montague St & Clinton St,40.6942715,-73.9923272,14,22,36
Willoughby Ave & Myrtle Ave,40.69757,-73.93098,8,6,14
Wadsworth Ave & W 175 St,40.846052,-73.937648,5,16,21
Sedgwick Ave & Hall of Fame Terrace,40.859532,-73.913303,1,16,17
98 St & 25 Ave,40.76454,-73.87171,15,3,18
Grand St & 14 St,40.75409,-74.0316,12,4,16
Park Ave & E 41 St,40.751581,-73.97791,21,85,106
Jerome Ave & E 181 St,40.855653,-73.905528,13,5,18
MacDonough St & Malcolm X Blvd,40.68273,-73.92926,10,6,16
Kent Ave & Division Ave,40.706563674670925,-73.9683187007904,28,13,41
Bailey Ave & W 234 St,40.88066,-73.90076,25,0,25
58 St & Pier 4,40.646475,-74.026081,23,2,25
W 51 St & 7 Ave,40.76167,-73.98256,59,13,72
Rockaway Ave & Bainbridge St,40.68319988172761,-73.91166642308235,11,14,25
Benham St & Roosevelt Ave,40.74841,-73.8751,0,24,24
Naples Terrace & Godwin Terrace,40.87995,-73.90536,23,1,24
Cherry St,40.71219906,-73.97948148,12,22,34
73 St & 25 Ave,40.76205,-73.895,16,3,19
Lexington Ave & Classon Ave,40.68676793,-73.95928168,4,6,10
2 Ave & E 31 St,40.74299,-73.97711,3,75,78
Broadway & W 38 St,40.7529728216068,-73.98734897375107,35,32,67
Bainbridge Ave & E 193 St,40.86415477605928,-73.892452880543,9,15,24
Norfolk St & Broome St,40.7172274,-73.98802084,20,30,50
34 Ave & 21 St,40.7628138,-73.9342862,12,9,21
Central Park W & W 76 St,40.77896784,-73.97374737,12,27,39
Park Pl & Thomas S. Boyland St,40.67154,-73.91433,12,11,23
Coffey St & Ferris St,40.67818387977647,-74.0170168876648,14,5,19
100 St & Humphreys St,40.76574,-73.87012,18,4,22
8 St & Astoria Blvd,40.7725996921817,-73.93266275525093,12,6,18
Jackson Mill Rd & 24 Ave,40.76619,-73.87561,19,2,21
Nostrand Ave & Myrtle Ave,40.69527008,-73.95238108,8,7,15
Jerome Ave & Ogden Ave,40.829797,-73.931015,10,9,19
Walton Ave & E 171 St,40.840683,-73.915073,10,4,14
Van Brunt St & Van Dyke St,40.6758329439129,-74.01472628116608,18,0,18
7 Ave & Park Pl,40.6776147,-73.97324283,7,7,14
25 Ave & 96 St,40.76447,-73.87369,18,1,19
Grand Concourse & E 161 St,40.82713380423556,-73.9227358996868,4,18,22
W 37 St & 10 Ave,40.75660359,-73.9979009,1,38,39
St James Ave & 51 Ave,40.73813,-73.88104,18,1,19
Lexington Ave & E 120 St,40.8013066,-73.9398167,13,15,28
Washington Pl & 6 Ave,40.73224119,-74.00026394,19,45,64
E 155 St & Courtlandt Ave,40.82057,-73.917579,4,13,17
Lenox Ave & W 130 St,40.8107922,-73.9430681,13,11,24
Water St & Fletcher St,40.706410755236135,-74.00559738278389,63,13,76
W 163 St & Riverside Dr,40.839278,-73.945446,2,14,16
Rogers Ave & Lincoln Rd,40.66127,-73.95352,17,6,23
Kingston Ave & Herkimer St,40.67890679,-73.94142771,14,1,15
Broadway & W 58 St,40.76695317,-73.98169333,19,58,77
11 Ave & W 41 St,40.76030096,-73.99884222,0,47,47
35 St & 23 Ave,40.77301508291382,-73.91119033098221,8,18,26
Freeman St & Southern Blvd,40.830051,-73.892103,14,6,20
Underhill Ave & Lincoln Pl,40.6740123,-73.9671457,1,17,18
Lexington Ave & E 127 St,40.805726,-73.936322,14,8,22
S 2 St & Kent Ave,40.714731,-73.966612,42,0,42
Seaman Ave & Beak St,40.867505,-73.926363,12,7,19
E 97 St & Madison Ave,40.787801,-73.953559,39,0,39
Audubon Ave & W 179 St,40.847305,-73.933291,10,11,21
Maple St & Albany Ave,40.66155,-73.93974,18,1,19
Rugby Rd & Albemarle Rd,40.64672,-73.96637,14,2,16
Carlton Ave & Greene Ave,40.685957,-73.971468,9,7,16
Cypress Ave & St Felix Ave,40.69559,-73.89927,7,13,20
Bleecker St & Forest Ave,40.7107,-73.90525,4,15,19
Stanton St & Norfolk St,40.720747,-73.986274,16,22,38
Flushing Ave & Vanderbilt Ave,40.697950315695444,-73.97077560424805,20,2,22
Jackson Square,40.71113,-74.0789,5,13,18
W 15 St & 7 Ave,40.73935542,-73.99931783,11,59,70
48 Ave & 37 St,40.74034668087185,-73.92886072397232,2,16,18
Great Jones St,40.72743423,-73.99379025,13,1,14
E 47 St & 2 Ave,40.75323098,-73.97032517,38,57,95
Ocean Ave & Tennis Ct,40.64873,-73.96084,12,4,16
W 42 St & 8 Ave,40.7575699,-73.99098507,2,31,33
2 Ave & 36 St,40.65708866668485,-74.00870203971863,42,0,42
W 44 St & 5 Ave,40.75500254,-73.98014437,63,3,66
99 St & 50 Ave,40.74278,-73.86226,11,9,20
W 43 St & 6 Ave,40.75527307,-73.98316936,55,6,61
48 St & 50 Ave,40.73737,-73.91803,3,13,16
Eastern Pkwy & Franklin Ave (SW Corner),40.670529,-73.958222,3,22,25
39 Ave & 45 St,40.749478221834764,-73.91826465725897,0,17,17
34 St & 5 Ave,40.654098,-74.001131,19,0,19
E 4 St & 2 Ave,40.7262807,-73.98978041,52,13,65
W Tremont Ave & Montgomery Ave,40.851788,-73.916418,0,21,21
8 Ave & W 49 St,40.76171227910671,-73.98655101656914,4,52,56
W 63 St & Broadway,40.77163851,-73.98261428,27,2,29
Madison St & 1 St,40.73879,-74.0393,6,12,18
Amsterdam Ave & W 162 St,40.83618,-73.939789,4,21,25
27 St & Hunter St,40.7485,-73.941275,17,13,30
Madison Ave & E 51 St,40.75863,-73.97513,41,0,41
Franklin Ave & Myrtle Ave,40.694546087246025,-73.95801365375519,18,8,26
Halsey St & Ralph Ave,40.68494,-73.92299,3,16,19
34 Ave & 71 St,40.75257,-73.89538,18,1,19
W 54 St & 11 Ave,40.768333,-73.992573,16,30,46
Union Ave & E 169 St,40.82995,-73.898802,6,11,17
Pacific St & Nostrand Ave,40.6776,-73.94963,11,5,16
Newport Pkwy,40.7287448,-74.0321082,5,9,14
Rivington St & Ridge St,40.71850211,-73.98329859,15,43,58
Stuyvesant Ave & Hart St,40.69465,-73.9343,14,7,21
43 St & Skillman Ave,40.74692675687384,-73.9208248257637,0,16,16
W 24 St & 7 Ave,40.74487634,-73.99529885,0,74,74
E 132 St & Madison Ave,40.810224,-73.937195,6,12,18
44 St & Greenpoint Ave,40.741119944681465,-73.92103672027588,3,23,26
31 Ave & 57 St,40.757357,-73.904726,4,18,22
E 53 St & Lexington Ave,40.75828065,-73.97069431,44,2,46
Duane St & Hudson St,40.71703,-74.00925,37,7,44
E Tremont Ave & E 176 St,40.847798,-73.901883,16,4,20
E 102 St & Park Ave,40.7904828,-73.95033068,25,0,25
Henry St & Bay St,40.6725058,-74.00494695,6,9,15
Crotona Ave & E 183 St,40.85157,-73.88475,11,12,23
Schenectady Ave & Pacific St,40.67686,-73.93327,7,12,19
E 56 St & Madison Ave,40.761573,-73.972628,31,0,31
W 155 St & Frederick Douglass Blvd,40.82923,-73.936996,16,12,28
Icahn Stadium Plaza,40.79322,-73.92396,7,6,13
Monroe St & 11 St,40.7501091128573,-74.036636745998,9,9,18
Greenwich St & W Houston St,40.728846,-74.008591,60,7,67
Columbia St & Rivington St,40.71739973,-73.98016555,15,24,39
DeKalb Ave & S Portland Ave,40.68967018552252,-73.97527355121376,6,5,11
Catherine St & Monroe St,40.71117444,-73.99682619,22,11,33
Cliff St & Fulton St,40.70838,-74.00495,31,31,62
Fairmount Ave,40.72572613742557,-74.07195925712585,5,13,18
Suffolk St & Stanton St,40.72066442,-73.98517977,27,51,78
E Mosholu Pkwy & Van Cortlandt Ave E,40.87656,-73.88366,12,9,21
E 147 St & Bergen Ave,40.814673,-73.91839,8,10,18
E 138 St & Grand Concourse,40.813224,-73.930605,10,9,19
46 St & 6 Ave,40.645921,-74.005708,1,19,20
St Ann's Ave & E 144 St,40.811112,-73.914932,6,13,19
31 St & Northern Blvd,40.75186951421875,-73.93349289894103,14,19,33
Riverside Dr & W 91 St,40.79313480986663,-73.97700369358063,13,33,46
Christopher St & Greenwich St,40.73291553,-74.00711384,9,56,65
Washington Pl & Greene St,40.72980619180496,-73.99546380915461,38,1,39
Franklin Ave & E 169 St,40.83171,-73.90208,1,17,18
E 170 St & Clay Ave,40.837213,-73.908345,4,18,22
Gerard Ave & E 146 St,40.817755,-73.92965,17,0,17
Dixon Mills,40.721630142638354,-74.04996782541275,6,12,18
5 Ave & 3 St,40.6728155,-73.98352355,11,13,24
Woodward Ave & Harman St,40.70793,-73.91092,3,12,15
Grove St & Fresh Pond Rd,40.71032,-73.89955,6,8,14
N 5 St & Wythe Ave,40.718389,-73.961501,30,6,36
Columbia St & W 9 St,40.6769993,-74.00647134,16,5,21
Columbia St & Degraw St,40.6859296,-74.00242364,17,2,19
Clay Ave & Claremont Pkwy,40.83999,-73.90549,14,1,15
Madison Ave & E 99 St,40.78948541553215,-73.95242929458618,33,0,33
Washington St & Gansevoort St,40.739323,-74.008119,9,35,44
St Marks Pl & 2 Ave,40.7284186,-73.98713956,47,25,72
Lincoln Pl & Classon Ave,40.6721683,-73.9609,0,21,21
Keegan Rd & 2 Ave,40.64243139706092,-74.0255355834961,35,0,35
Lexington Ave & E 26 St,40.741459,-73.983293,9,70,79
Broadway & W 185 St,40.852538,-73.93441,2,16,18
Lenox Ave & W 133 St,40.81296,-73.941878,15,3,18
Bergen St & Troy Ave,40.67524,-73.93596,8,11,19
Atlantic Ave & Fort Greene Pl,40.68382604,-73.97632328,16,40,56
E 128 St & 3 Ave,40.805631,-73.934077,13,6,19
St Nicholas Ave & W 134 St,40.816234,-73.948222,3,21,24
E 106 St & Madison Ave,40.7934337,-73.94945003,17,4,21
Lafayette Park,40.71346382669195,-74.06285852193832,8,5,13
Lincoln Ave & E 134 St,40.808484,-73.928803,10,2,12
Intervale Ave & Kelly St,40.827301,-73.896372,14,2,16
W 30 St & 8 Ave,40.74965268472847,-73.9952078461647,15,46,61
3 Ave & E 71 St,40.76879,-73.9614,2,43,45
53 St & 4 Ave,40.644862,-74.014531,4,14,18
10 Ave & W 28 St,40.75066386,-74.00176802,18,30,48
Goulden Ave & Bedford Park Blvd,40.87387,-73.89533,7,8,15
Bushwick Ave & Dekalb Ave,40.69502,-73.92825,4,23,27
West Thames St,40.70834698,-74.01713445,15,54,69
Allen St & Stanton St,40.722055,-73.989111,28,17,45
W 21 St & 6 Ave,40.74173969,-73.99415556,35,34,69
E 63 St & 3 Ave,40.763954,-73.9646,8,48,56
Grand Concourse & E 192 St,40.86448,-73.89522,1,14,15
Skillman Ave & 43 Ave,40.74653761978055,-73.93215849995613,13,3,16
Ogden Ave & W 164 St,40.832812,-73.929372,0,18,18
30 Ave & 80 St,40.76109,-73.88838,18,1,19
E 14 St & Ave B,40.72938685,-73.97772429,12,23,35
34 Ave & 31 St,40.759604471387945,-73.92714411020279,5,12,17
Jefferson St & Cypress Ave,40.70907,-73.92157,23,1,24
93 St & Roosevelt Ave,40.74888,-73.87368,1,23,24
E 5 St & Ave A,40.72479007746337,-73.98430064320564,15,33,48
111 St & 53 Ave,40.74336,-73.85129,9,15,24
Irving Ave & Halsey St,40.69467,-73.90663,15,1,16
Intervale Ave & Westchester Ave,40.821967,-73.896752,24,0,24
Gansevoort St & Hudson St,40.73937600789778,-74.00520807425661,86,30,116
34 Ave & 113 St,40.75696,-73.85612,18,2,20
45 Ave & 21 St,40.74737075646803,-73.94777297973631,17,3,20
Onderdonk Ave & Dekalb Ave,40.70863,-73.91497,5,10,15
W 168 St & Fort Washington Ave,40.84210236102173,-73.9422395825386,20,20,40
Center Blvd & 51 Ave,40.743366080270214,-73.95960688591003,13,10,23
Myrtle Ave & Marcy Ave,40.69539817,-73.94954908,12,8,20
E 167 St & Clay Ave,40.83094,-73.91125,29,0,29
79 St & 37 Ave,40.74937,-73.88714,7,8,15
Reade St & Broadway,40.71450451,-74.00562789,20,35,55
Crotona Ave & E 179 St,40.84666,-73.88991,2,19,21
Nevins St & Schermerhorn St,40.68737247650719,-73.98176059126854,10,14,24
Menahan St & Seneca Ave,40.70461,-73.91054,0,14,14
Park Ave & E Tremont Ave,40.84731,-73.89981,24,0,24
60 St & 60 Rd,40.71592232709503,-73.90601366758347,13,2,15
Adam Clayton Powell Blvd & W 151 St,40.825289,-73.936232,5,12,17
Allen St & Hester St,40.71606,-73.99191,79,27,106
Carlton Ave & Dean St,40.6809741,-73.9710097,20,3,23
Lincoln Rd & Ocean Ave,40.6605,-73.9626,16,0,16
Fresh Pond Rd & Eliot Ave,40.71442,-73.90097,5,13,18
Broadway & Van Cortlandt Park S,40.8863,-73.8997,34,0,34
E 98 St & Park Ave,40.78813,-73.95206,16,0,16
Lincoln Park,40.7246050998869,-74.07840594649315,9,8,17
Stanhope St & Fairview Ave,40.70998,-73.91116,2,12,14
Westchester Ave & Longwood Ave,40.819701,-73.901311,2,16,18
Dean St & Hoyt St,40.6864442,-73.98759104,57,12,69
Pearl St & York St,40.70140463410644,-73.98768022656441,26,22,48
W 34 St & Hudson Blvd E,40.75516719072139,-74.00059908628464,55,0,55
W 48 St &  Rockefeller Plaza,40.75776935448309,-73.97929430007935,47,7,54
E 3 St & Church Ave,40.643817,-73.977433,9,11,20
6 Ave & Canal St,40.72243797,-74.00566443,28,41,69
72 St & 41 Ave,40.7448,-73.89377,7,19,26
Willoughby St & Ashland Pl,40.69178,-73.97877,20,5,25
4 St & River St,40.7408139,-74.0274062,3,10,13
Goulden Ave & W 197 St,40.87156,-73.89714,12,7,19
34 Ave & 89 St,40.75437,-73.87833,5,18,23
56 St & Arnold Ave,40.71484,-73.909,14,6,20
55 Ave & 97 Pl,40.73892,-73.86367,8,7,15
43 St & 37 Ave,40.750181,-73.919998,3,18,21
34 Ave & 38 St,40.75717,-73.92175,18,9,27
Greene St & Prince St,40.72511734422387,-73.99930492043495,37,3,40
Grand Concourse & E 184 St,40.85941,-73.8985,4,17,21
29 St & 5 Ave,40.656986,-73.998194,10,3,13
12 Ave & W 125 St,40.818299,-73.960405,30,6,36
E 85 St & 3 Ave,40.77801203,-73.95407149,7,14,21
St Nicholas Ave & W 126 St,40.8114323,-73.9518776,25,0,25
Sedgwick Ave & Giles Pl,40.88111,-73.8965,1,19,20
9 St HBLR - Jackson St & 8 St,40.74790720968899,-74.03841152787209,9,9,18
St Marks Pl & 4 Ave,40.68197,-73.98034,21,0,21
Fulton St & Waverly Ave,40.683238654603414,-73.96599590778351,1,17,18
Jerome Ave & E 164 St,40.831444,-73.926226,17,1,18
Bayard St & Baxter St,40.71602118,-73.99974372,23,13,36
7 Ave & 41 St,40.647379,-74.000911,3,17,20
Broadway & W 122 St,40.8120562,-73.9612547,7,22,29
Cambridge Pl & Gates Ave,40.68488,-73.96304,2,5,7
Adam Clayton Powell Blvd & W 138 St,40.81695971032464,-73.9422959089279,4,16,20
99 St & 32 Ave,40.75896,-73.86976,9,6,15
Decatur St & Saratoga Ave,40.68332,-73.91711,15,1,16
Lefferts Ave & Albany Ave,40.66288,-73.94019,17,4,21
4 Ave & 3 St,40.673746,-73.985649,33,0,33
W 84 St & Amsterdam Ave,40.78621,-73.9756,15,47,62
University Ave & W 168 St,40.838706,-73.927034,14,2,16
Beck St & Leggett Ave,40.815077,-73.899939,6,5,11
31 Pl & Hunters Point Ave,40.74021356884924,-73.93537044525146,13,6,19
3 Ave & Franklin Ave,40.82696,-73.907451,1,16,17
E Tremont Ave & Jerome Ave,40.851747,-73.908964,14,1,15
Cabrini Blvd & W 177 St,40.848282,-73.941343,2,21,23
Flatbush Ave & Eastern Pkwy,40.668757,-73.966438,1,21,22
E 11 St & 1 Ave,40.72953837,-73.98426726,22,36,58
Hope St & Union Ave,40.71167351,-73.95141312,15,6,21
Lawrence St & Willoughby St,40.69236178,-73.98631746,21,6,27
Bergen Ave & Stegman St,40.70657545063453,-74.0867006778717,11,5,16
W 35 St & 8 Ave,40.752762088742045,-73.99280458705107,9,35,44
Prospect Ave & Greenwood Ave,40.651745,-73.975988,10,4,14
Morris Ave & E 153 St,40.820036,-73.921411,9,7,16
India St Pier,40.731734785883454,-73.9612390102593,35,17,52
Adam Clayton Powell Blvd & W 141 St,40.819241,-73.941057,5,12,17
Dock St & Front St,40.702709,-73.99253,20,4,24
E 20 St & Park Ave,40.73827428,-73.98751968,12,10,22
Pearl St & Whitehall St,40.703144,-74.013178,31,11,42
E 118 St & 3 Ave,40.799139,-73.9389152,17,11,28
Winthrop St & Rogers Ave,40.65686,-73.95331,10,5,15
34 Ave & 13 St,40.7638753,-73.9364848,9,10,19
Central Park S & 6 Ave,40.76590936,-73.97634151,24,44,68
6 Ave & Broome St,40.72431,-74.00473,38,24,62
W 16 St & The High Line,40.74334935,-74.00681753,21,30,51
Fulton St & Clermont Ave,40.68415748,-73.96922273,4,59,63
E 27 St & 1 Ave,40.739445,-73.976806,71,5,76
46 Rd & 11 St,40.745805,-73.950752,10,14,24
Van Dam St & Meeker Ave,40.72532,-73.9368,8,23,31
Irving Ave & Harman St,40.70108,-73.9179,10,9,19
St Ann's Ave & Westchester Ave,40.815887,-73.911918,4,8,12
Cooper Square & Astor Pl,40.72951496224949,-73.99075269699097,46,39,85
Astoria Park S & Shore Blvd,40.7767,-73.927631,16,15,31
Myrtle Ave & 65 St,40.70117,-73.8904,8,10,18
S 4 St & Wythe Ave,40.71285887,-73.96590294,24,1,25
St Nicholas Ave & W 150 St,40.827212,-73.942722,8,17,25
35 Ave & 10 St,40.76315481910373,-73.93985509872437,7,17,24
Amsterdam Ave & W 79 St,40.7829391,-73.9786517,3,38,41
New York Ave & Lenox Rd,40.65458,-73.94716,15,4,19
Washington St & Laight St,40.72231,-74.0106,31,32,63
Essex Light Rail,40.7127742,-74.0364857,14,7,21
E 19 St & Beverley Rd,40.64483,-73.9613,16,1,17
Ditmars Blvd & 102 St,40.76894,-73.86832,25,0,25
111 St & Roosevelt Ave,40.75147,-73.8557,15,6,21
W 33 St & 10 Ave,40.753773368360385,-73.99937599897385,49,0,49
Riverside Dr & W 145 St,40.827305,-73.951989,5,26,31
Bedford Park Blvd & Paul Ave,40.87444,-73.89186,16,8,24
President St & Hoyt St,40.680057,-73.991753,11,9,20
Bushwick Ave & Forrest St,40.70076,-73.93641,10,5,15
Prospect Ave & E 167 St,40.826303,-73.898751,5,6,11
Morgan Ave & Lombardy St,40.72226,-73.93889,7,21,28
N 15 St & Wythe Ave,40.724055,-73.955736,51,0,51
41 St & 4 Ave,40.651354,-74.007168,14,8,22
N 5 St & Northside Piers,40.719876,-73.963865,32,4,36
94 St & 57 Ave,40.73628,-73.86752,19,1,20
Empire Blvd & New York Ave,40.66403,-73.94769,18,1,19
34 Ave & 108 St,40.75614,-73.86084,22,1,23
Madison St & Forest Ave,40.70555,-73.90245,0,20,20
Rutland Rd & E 45 St,40.66034,-73.93618,19,0,19
42 Ave & 108 St,40.74944,-73.85792,10,9,19
Bergen Ave & E 152 St,40.817166,-73.914737,6,11,17
57 Rd & 59 St,40.72249,-73.90854,13,5,18
Van Brunt St & Wolcott St,40.6773429,-74.01275056,27,8,35
Prospect Park SW & Greenwood Ave,40.652563,-73.972573,19,4,23
W Broadway & Spring St,40.72494672359416,-74.00165855884552,42,13,55
Amsterdam Ave & W 152 St,40.829523,-73.944279,9,9,18
5 Ave & 41 St,40.649983,-74.005144,4,24,28
E 6 St & Ave D,40.72228087,-73.97668709,11,29,40
23 St & 31 Ave,40.76663971723091,-73.9286595582962,1,16,17
LaGuardia Pl & W 3 St,40.72917025,-73.99810231,25,21,46
Mercer St & Bleecker St,40.72706363348306,-73.99662137031554,56,3,59
E 165 St & Clay Ave,40.82809,-73.91288,10,4,14
Walker St & Baxter St,40.717411,-73.999573,43,2,45
W 17 St & 7 Ave,40.740564236339516,-73.99852573871613,9,37,46
W 204 St & Nagle Ave,40.863211,-73.920827,10,1,11
Harrison St & Hudson St,40.71870987,-74.0090009,34,4,38
Stanton St & Mangin St,40.71782143,-73.97628939,11,5,16
104 St & 38 Ave,40.75138,-73.86242,16,5,21
Morton St & Greenwich St,40.73115,-74.00887,43,10,53
Pacific St & Nevins St,40.6853761,-73.98302136,6,8,14
Grand Concourse & E Mount Eden Ave,40.84301,-73.91172,3,15,18
48 St & Barnett Ave,40.750016404259334,-73.91540944576263,5,13,18
Kingsbridge Terrace & W 230 St,40.87555,-73.90212,8,7,15
E 34 St & Church Ave,40.65116,-73.94577,10,14,24
Rutland Rd & Brooklyn Ave,40.65969,-73.94517,24,1,25
90 St & 51 Ave,40.73937,-73.87411,17,2,19
Front St & Pine St,40.70531,-74.00613,26,25,51
Washington Park,40.6917823,-73.9737299,1,18,19
Madison St & Evergreen Ave,40.69122,-73.91693,5,12,17
Jerome Ave & Bedford Park Blvd E,40.87307,-73.88971,8,15,23
Greenwich Ave & Charles St,40.735238,-74.000271,5,51,56
E 67 St & Park Ave,40.76780080148132,-73.96592080593109,12,25,37
Prospect Park SW & Vanderbilt St,40.65482,-73.973217,16,19,35
N Henry St & Norman Ave,40.7277,-73.94395,17,10,27
Willoughby Ave & Walworth St,40.69331716,-73.95381995,15,4,19
MacDougal St & Prince St,40.72710258,-74.00297088,18,27,45
Broadway & Kent Ave,40.710888,-73.968329,15,18,33
Warren St & Court St,40.686371,-73.99383324,15,11,26
Carlton Ave & Flushing Ave,40.697787,-73.973736,36,8,44
Caton Ave & Argyle Rd,40.649681,-73.967829,10,3,13
Prospect Ave & Vanderbilt St,40.653368,-73.976291,8,10,18
107 St & 32 Ave,40.75996,-73.86224,1,16,17
Willoughby Ave & Onderdonk Ave,40.7098,-73.91727,8,15,23
New York Ave & Montgomery St,40.66509,-73.94824,1,14,15
MacDougal St & Washington Sq,40.73226398,-73.99852205,20,8,28
Greenwich Ave & 8 Ave,40.7390169121,-74.0026376103,34,34,68
Union Ave & N 12 St,40.71924,-73.95242,14,18,32
Courtlandt Ave & E 149 St,40.816402,-73.919549,8,14,22
Madison St & Seneca Ave,40.70183,-73.90625,7,12,19
St James Pl & Pearl St,40.71117416,-74.00016545,19,7,26
56 Ave & 92 St,40.73649,-73.86995,24,1,25
30 St & 48 Ave,40.7413272,-73.937999,25,4,29
Sigourney St & Columbia St,40.67267243410948,-74.0087952464819,9,6,15
Parkside Ave & Flatbush Ave,40.65563,-73.95968,10,11,21
Kingston Ave & Montgomery St,40.66481,-73.94269,2,8,10
Clinton Ave & Myrtle Ave,40.693261,-73.968896,4,19,23
E 39 St & Lexington Ave,40.749498546025194,-73.97729203113158,21,36,57
Andrew Ave N & Hall of Fame Tce,40.85834,-73.91008,1,17,18
W 64 St & Thelonious Monk Circle,40.77515953434235,-73.98918695747852,4,31,35
Warren St,40.7211236,-74.03805095,4,16,20
Bergen St & Mother Gaston Blvd,40.67374,-73.90852,17,3,20
E 161 St & Park Ave,40.824811,-73.916407,10,4,14
Steinway St & 23 Ave,40.7713937,-73.9077436,4,16,20
Evergreen Ave & Noll St,40.70106,-73.93318,16,7,23
1 Ave & E 110 St,40.7923272,-73.9383,8,16,24
3 Ave & E 170 St,40.834857,-73.903743,11,8,19
W 176 St & Montgomery Ave,40.849629,-73.919205,2,15,17
W 51 St & Rockefeller Plaza,40.75973805251143,-73.97811613976955,43,8,51
29 St & 40 Ave,40.75217,-73.93588,10,8,18
Verveelen Pl & Broadway,40.87826,-73.90508,20,0,20
Calyer St & West St,40.72693,-73.95863,8,25,33
Monroe St & Bedford Ave,40.6851443,-73.95380904,12,7,19
E 18 St & Church Ave,40.64958,-73.96316,23,1,24
Jackson St & Leonard St,40.71638031973561,-73.94821286201477,4,17,21
Cortelyou Rd & Albany Ave,40.64483,-73.93853,14,4,18
E 5 St & Ave C,40.72299208,-73.97995466,26,28,54
E 72 St & York Ave,40.76663814,-73.95348296,32,3,35
Fulton St & Williams Ave,40.67709,-73.9008,17,2,19
W 159 St & Edgecombe Ave,40.833303,-73.939326,4,15,19
Edgecombe Ave & W 145 St,40.823498,-73.94386,1,24,25
65 St & 35 Ave,40.75053,-73.8977,17,6,23
Hudson St & W 13 St,40.74005708567285,-74.0052741765976,33,1,34
Greenpoint Ave & Manhattan Ave,40.73026,-73.95394,19,7,26
61 St & Queens Blvd,40.74091,-73.90273,18,4,22
10 St & 2 Ave,40.671907,-73.993612,19,0,19
Hudson St & N Moore St,40.719887998,-74.0086269379,48,20,68
N 7 St & Driggs Ave,40.716967,-73.956388,48,4,52
57 St & 43 Ave,40.74324,-73.908,8,11,19
1 Ave & E 44 St,40.75001986,-73.96905301,45,39,84
Amsterdam Ave & W 186 St,40.851113,-73.928808,0,20,20
Manila & 1st,40.721650724879986,-74.04288411140442,6,12,18
W 233 St & Albany Crescent,40.87979,-73.90164,18,1,19
Nassau St & Duffield St,40.698477,-73.98384,50,2,52
Anthony Ave & E Tremont Ave,40.848793,-73.903178,2,13,15
72 St & Broadway,40.74751,-73.89372,13,7,20
53 St & 2 Ave,40.64744,-74.018846,25,0,25
W 129 St & Convent Ave,40.814394437915816,-73.95324736833572,12,12,24
Washington St & Barrow St,40.73191132323174,-74.008769094944,39,16,55
St Johns Pl & Kingston Ave,40.67113,-73.94222,6,9,15
W 49 St & 8 Ave,40.76227205,-73.98788205,0,58,58
Crotona Pkwy & Bronx Park S,40.84784,-73.883,7,17,24
Throop Ave & Myrtle Ave,40.69622937,-73.94371094,8,8,16
Liberty Light Rail,40.7112423,-74.0557013,0,0,0
Broadway & Whipple St,40.7016657,-73.9437303,24,1,25
1 Ave & E 30 St,40.74144387,-73.97536082,23,14,37
Delancey St & Eldridge St,40.719383,-73.991479,13,11,24
Devoe St & Morgan Ave,40.713811,-73.93515,18,0,18
Broadway & W 37 St,40.75172632,-73.98753523,28,29,57
46 St & 28 Ave,40.763328,-73.908782,6,11,17
Monroe St & Marcus Garvey Blvd,40.686722,-73.938988,10,8,18
Forsyth St & Broome St,40.71893904,-73.99266288,35,26,61
51 St & Hobart St,40.75767234025041,-73.90769943594933,5,17,22
Montgomery St & Franklin Ave,40.666439306870814,-73.9605563879013,6,11,17
Eastern Pkwy & Rochester Ave,40.66846,-73.9282,4,14,18
Van Sinderen Ave & Truxton St,40.6786,-73.90369,4,16,20
W 42 St & Dyer Ave,40.75898481399634,-73.99379968643188,1,29,30
Knickerbocker Ave & George St,40.704425,-73.92836,17,3,20
39 St & 50 Ave,40.73824937345944,-73.92737478017807,11,6,17
S 3 St & Bedford Ave,40.71260486,-73.96264403,3,17,20
Van Buren St & Broadway,40.692,-73.92617,12,9,21
47 Ave & 109 St,40.74713,-73.85502,10,17,27
46 St & 25 Ave,40.765753,-73.90676,5,18,23
Albany St & Greenwich St,40.709267,-74.013247,38,6,44
St Marks Ave & Rochester Ave,40.67404,-73.92772,8,7,15
Lenox Ave & W 111 St,40.7987859,-73.9523,11,20,31
Skillman Ave & Honeywell St,40.747148249032804,-73.92902433872223,12,5,17
Jackson Ave & 49 Ave,40.7429302,-73.952037,29,1,30
60 Pl & Flushing Ave,40.71988,-73.90556,16,2,18
Garrison Ave & Manida St,40.818743,-73.890247,8,21,29
31 St & Ditmars Blvd,40.776168,-73.910485,19,1,20
Knickerbocker Ave & Moffat St,40.690434,-73.903737,4,19,23
Grant Ave & MLK Dr,40.70919832245443,-74.08084273338318,11,6,17
W 15 St & 10 Ave,40.742753828659026,-74.00747358798981,48,8,56
2 Ave & 32 St,40.659176,-74.006584,24,0,24
74 St & 37 Ave,40.74908,-73.89172,22,8,30
McKibbin St & Bogart St,40.706237,-73.933871,20,8,28
Inwood Ave & W 170 St,40.840536,-73.919228,15,0,15
Jay St & Tech Pl,40.695065,-73.987167,30,13,43
Stephen St & Seneca Ave,40.6988,-73.9007,1,14,15
E 103 St & Lexington Ave,40.7903051,-73.94755757,18,9,27
5 Ave & 37 St,40.652657,-74.002356,30,0,30
Central Park W & W 103 St,40.79558954105342,-73.96188408136368,26,5,31
Grand Concourse & E 144 St,40.816576,-73.927987,20,1,21
Broadway & W 234 St,40.88185,-73.90291,25,4,29
E 165 St & Fox St,40.82394,-73.894025,14,12,26
Lenox Ave & W 144 St,40.819783,-73.936521,8,13,21
Lenox Ave & W 115 St,40.8011939,-73.9500739,11,15,26
E 174 St & Walton Ave,40.844811,-73.912042,10,17,27
98 St & 41 Ave,40.74773,-73.86649,8,13,21
Tiebout Ave & E 184 St,40.858498,-73.89637,5,11,16
MacDonough St & Marcy Ave,40.68078,-73.94613,10,7,17
Barry St & Tiffany St,40.816126,-73.891559,15,3,18
Parkside Ave & Ocean Ave,40.65485,-73.96217,16,13,29
56 Ave & Junction Blvd,40.73716,-73.86625,19,2,21
Jerome Ave & W 195 St,40.86874,-73.89657,21,10,31
Cauldwell Ave & E 161 St,40.82188,-73.907521,3,11,14
Caton Ave & St. Pauls Pl,40.65153,-73.96277,17,1,18
Kenmare St & Elizabeth St,40.72054,-73.9949,31,1,32
Court St & State St,40.6902375,-73.99203074,15,15,30
Ditmars Blvd & 48 St,40.769219,-73.901001,9,8,17
Union St & Bedford Ave,40.6691783,-73.9554162,0,21,21
Hazen St & 20 Ave,40.772092,-73.895166,23,0,23
Congress St & Hicks St,40.6893952,-73.9995126,25,5,30
103 St & 41 Ave,40.74875,-73.86285,7,14,21
Eastern Pkwy & Nostrand Ave,40.66967,-73.9503,2,20,22
Hancock St & Stuyvesant Ave,40.68454,-73.9322,5,7,12
40 St & 3 Ave,40.6535,-74.00902,29,0,29
72 St & Northern Blvd,40.75473,-73.89458,14,5,19
57 St & 37 Ave,40.75048,-73.90513,10,12,22
Main St & Plymouth St,40.703781673548306,-73.99073392152786,18,20,38
East End Ave & E 86 St,40.77518615,-73.94446054,15,7,22
Elmhurst Ave & Roosevelt Ave,40.74864,-73.87619,3,19,22
W 67 St & Broadway,40.77492513,-73.98266566,7,18,25
E 182 St & Park Ave,40.85455,-73.89507,21,1,22
Sedgwick Ave & W 195 St,40.87049,-73.90287,5,15,20
Willoughby Ave & Wyckoff Ave,40.705614,-73.92153,19,3,22
Broadway & W 138 St,40.82182,-73.95353,1,12,13
Mercer St & Spring St,40.72362738,-73.99949601,34,25,59
31 Ave & 86 St,40.75958,-73.88219,12,3,15
32 Ave & 77 St,40.75727,-73.89024,19,4,23
Eastern Pkwy & Franklin Ave (NE Corner),40.6707767,-73.9576801,5,23,28
W 113 St & Broadway,40.805973,-73.964928,0,31,31
W 47 St & 9 Ave,40.76153045158114,-73.99007007479668,2,48,50
